,Place Name,Place ID,Latitude,Longitude,Rating,Rate_amount,Types,Address
0,臺灣銀行 木柵分行,ChIJJ-Qw1HqqQjQREoH73Umar2E,24.9919891,121.5738149,3.9,34,"['bank', 'finance', 'point_of_interest', 'establishment']",文山區新光路一段145號
1,台北富邦銀行 興隆分行,ChIJYWFnuROqQjQRNTcPMZo2WsE,25.0001792,121.5563939,2.5,15,"['bank', 'atm', 'finance', 'point_of_interest', 'establishment']",文山區興隆路三段69號
2,安泰商業銀行,ChIJMZ9f6BOqQjQRLA914xOrd0U,25.0008333,121.555,2.7,7,"['bank', 'finance', 'point_of_interest', 'establishment']",文山區興隆路三段11號
3,第一商業銀行,ChIJaXci4ROqQjQRL_nGuPcFDNg,25.0010589,121.5543949,2.9,12,"['bank', 'finance', 'point_of_interest', 'establishment']",文山區興隆路二段347號
5,中信商銀 文山分行,ChIJ30O0-hOqQjQRfmAiP-UDz6I,25.0015341,121.5548497,2.9,15,"['bank', 'finance', 'point_of_interest', 'establishment']",文山區辛亥路四段248、250號1樓
8,中國信託銀行,ChIJNzE4_ROqQjQRkozra3bHRKk,25.0016131,121.554225,-,-,"['bank', 'finance', 'point_of_interest', 'establishment']",文山區辛亥路四段252巷2弄
17,永豐銀行和平分行,ChIJCQRkwjaqQjQRkuyjxIqPHjk,25.0213315,121.5555175,3.1,18,"['bank', 'finance', 'point_of_interest', 'establishment']",大安區和平東路三段260號1樓
18,華泰銀行(大安分行),ChIJNyyK7jaqQjQRuIHbkBDkS84,25.0212677,121.5561042,4.5,4,"['bank', 'finance', 'point_of_interest', 'establishment']",信義區和平東路三段321號
19,華泰商業銀行股份有限公司北三區域中心,ChIJXSyK7jaqQjQRkhtmbAWfeq8,25.021383,121.5561332,-,-,"['bank', 'finance', 'point_of_interest', 'establishment']",信義區和平東路三段321號
20,陽信銀行大安分行,ChIJdx9cVDGqQjQRKQ05QyXU2t0,25.023286,121.553925,2.5,4,"['bank', 'finance', 'point_of_interest', 'establishment']",信義區和平東路三段225號
21,元大商業銀行 世貿分行,ChIJL_GL_8mrQjQR8GnohdeEQtY,25.0285152,121.5570645,2.7,6,"['bank', 'finance', 'point_of_interest', 'establishment']",信義區基隆路二段123號1樓
22,日盛銀行信義分行,ChIJEWr-28qrQjQR2miCkJtSeVU,25.0289969,121.557344,3.2,12,"['bank', 'finance', 'point_of_interest', 'establishment']",信義區基隆路二段109號
23,彰化銀行(和平分行),ChIJJ5Wq1TOqQjQRsJq6ZkNw1jU,25.0241732,121.5516736,5,3,"['bank', 'finance', 'point_of_interest', 'establishment']",大安區和平東路三段106號
24,台北富邦银行 基隆路分行,ChIJ8QgDEsqrQjQRDwzcuwH5JwA,25.0268246,121.5555614,3.4,23,"['bank', 'atm', 'finance', 'point_of_interest', 'establishment']",信義區基隆路二段149號
25,板信商業銀行(信義分行),ChIJbf_21cqrQjQRKAnlCPC6XBU,25.02838,121.556992,3.8,5,"['bank', 'finance', 'point_of_interest', 'establishment']",信義區基隆路二段127號
26,萬鑫國際當舖,ChIJf4XvhzOqQjQRxwTSrADLrzA,25.025444,121.5540378,-,-,"['bank', 'finance', 'point_of_interest', 'establishment']",信義區基隆路二段161號
27,上億當舖,ChIJ_Zz-iDOqQjQRf12Y5wkgro4,25.0253554,121.5539265,5,5,"['bank', 'finance', 'point_of_interest', 'establishment']","號, No. 169, 基隆路二段, 信義區"
29,瑞興銀行 和平分行,ChIJm0od0TOqQjQR1rLu8RFojlM,25.0245317,121.5516699,4.2,5,"['bank', 'finance', 'point_of_interest', 'establishment']",大安區和平東路三段121號
30,彰化商業銀行股份有限公司,ChIJJ5Wq1TOqQjQRy-Z-fzIlNGk,25.0241532,121.551406,-,-,"['bank', 'finance', 'point_of_interest', 'establishment']",大安區和平東路三段106號
31,聯邦銀行 通化簡易型分行,ChIJ_akDoMyrQjQRzr9u5lYo-rI,25.030098,121.554093,5,2,"['bank', 'finance', 'point_of_interest', 'establishment']",大安區通化街74號
39,聯邦商業銀行 和平分行,ChIJUU0-ijGqQjQRgVxHyMLXP2c,25.0243229,121.550124,2.8,9,"['bank', 'finance', 'point_of_interest', 'establishment']",大安區和平東路三段68之2號
41,第一商業銀行-敦化分行,ChIJk4LLGjKqQjQRftrkjMEGT-o,25.0251977,121.5490917,3.3,14,"['bank', 'finance', 'point_of_interest', 'establishment']",大安區敦化南路二段267號
42,國泰世華銀行 敦化分行,ChIJ50VR1i-qQjQRK4KAgw15tqw,25.021726,121.548265,3.7,21,"['bank', 'finance', 'point_of_interest', 'establishment']",大安區敦化南路二段218號
43,斐商標準銀行股份有限公司台北分行,ChIJ50VR1i-qQjQRjSaDCUizwSg,25.0217172,121.5482726,-,-,"['bank', 'finance', 'point_of_interest', 'establishment']",大安區敦化南路二段218號
45,日盛銀行敦化分行,ChIJTR02Hi6qQjQRFrdiF9jT8to,25.023699,121.548329,1.5,6,"['bank', 'finance', 'point_of_interest', 'establishment']",大安區敦化南路二段180號
48,台灣土地銀行,ChIJ-8RGCS6qQjQRY2aBjsCTy08,25.0249518,121.5473232,3.6,11,"['bank', 'finance', 'point_of_interest', 'establishment']",大安區和平東路三段15號
49,土地銀行證券商,ChIJOa0JCS6qQjQRNYjw040jP8s,25.0249253,121.5474665,5,1,"['bank', 'finance', 'point_of_interest', 'establishment']",大安區和平東路三段15號3樓
50,花旗銀行 大安分行,ChIJw3EuLTCqQjQRw5J7q80jUX4,25.0272556,121.5500384,2.4,39,"['bank', 'finance', 'point_of_interest', 'establishment']",大安區安和路二段185號
51,臺灣企業銀行,ChIJqZKet82rQjQRCs6hP2rSM4c,25.0283447,121.5482837,3.7,6,"['bank', 'finance', 'point_of_interest', 'establishment']",大安區敦化南路二段92號
53,永豐銀行敦南分行,ChIJN_1-9TKqQjQR7gWTRoeEMR4,25.0270797,121.5499602,3.4,5,"['bank', 'finance', 'point_of_interest', 'establishment']",大安區安和路二段187號地下1樓
56,台北富邦銀行敦和分行,ChIJBShGuzKqQjQRiMjXTYjgEto,25.0290164,121.5491763,2.9,8,"['bank', 'finance', 'point_of_interest', 'establishment']",大安區敦化南路二段97號1樓
57,台新銀行 北師分行,ChIJcdh3ey6qQjQRfJz-dLezwEM,25.0248911,121.5461251,3.6,26,"['bank', 'finance', 'point_of_interest', 'establishment']",大安區和平東路二段347號
58,國泰世華銀行 安和分行,ChIJR6XCzzKqQjQRdZUWf2bIGlQ,25.0287447,121.5502169,2.9,15,"['bank', 'finance', 'point_of_interest', 'establishment']",大安區安和路二段92號
59,美商高盛亞洲證券有限公司,ChIJu3wnbTKqQjQR7itfH7hZ63g,25.0259859,121.549306,5,4,"['bank', 'finance', 'point_of_interest', 'establishment']",大安區敦化南路二段207號11樓
60,華南銀行 敦和分行,ChIJG8j6mTKqQjQRMzP56HoVqU0,25.0282639,121.5491417,1.9,14,"['bank', 'finance', 'point_of_interest', 'establishment']",大安區敦化南路二段107號
61,滙豐銀行 安和分行,ChIJ54NcaJ6rQjQRmKojnfXhK4o,25.0264547,121.5501271,4.4,9,"['bank', 'finance', 'point_of_interest', 'establishment']",大安區安和路二段205號
62,遠東國際商業銀行,ChIJm3EnbTKqQjQRegaRtScGkPs,25.0259859,121.549306,2.9,17,"['bank', 'finance', 'point_of_interest', 'establishment']",大安區敦化南路二段207號
63,中國信託安和分行,ChIJz-EIXDKqQjQR85amw3cY_zI,25.0266651,121.550074,1.9,17,"['bank', 'finance', 'point_of_interest', 'establishment']",大安區安和路二段195號
65,華泰銀行,ChIJdSs-9S2qQjQRuf7zGu1f1-o,25.0259688,121.5483838,2.5,4,"['bank', 'finance', 'point_of_interest', 'establishment']",大安區敦化南路二段130號
66,兆豐銀行(敦南分行),ChIJc6RTVS2qQjQRcs73dXRt0xE,25.0301143,121.5483886,1.7,21,"['bank', 'finance', 'point_of_interest', 'establishment']",大安區敦化南路二段62號
67,中國信託敦南分行,ChIJ_RdPWC2qQjQRm9sT6q2pvYg,25.0297623,121.5483909,3.7,26,"['bank', 'finance', 'point_of_interest', 'establishment']",大安區敦化南路二段68號
68,道富銀行,ChIJT0zzejKqQjQRi9pxcb_62XQ,25.0260127,121.5493,3,1,"['bank', 'finance', 'point_of_interest', 'establishment']",大安區敦化南路二段207號19F
71,臺灣企銀,ChIJ-8DpmjKqQjQRsUxqOrE01iU,25.0280777,121.5490137,-,-,"['bank', 'finance', 'point_of_interest', 'establishment']","Lane 171, Section 2, Anhe Road, Da’an District"
72,台企大安分行,ChIJzT67a8arQjQRph5lQxrrAtI,25.0282632,121.5483921,-,-,"['bank', 'finance', 'point_of_interest', 'establishment']","No. 92號, Section 2, Dunhua South Road, Da’an District"
74,元富銀行,ChIJBShGuzKqQjQR1gIUJDNmk10,25.0289307,121.549271,-,-,"['bank', 'finance', 'point_of_interest', 'establishment']","No. 97, Section 2, Dunhua South Road, Da’an District"
78,Land Bank of Taiwan,ChIJHc0mWS2qQjQRR47tIWoke68,25.0291593,121.548407,3,6,"['bank', 'finance', 'point_of_interest', 'establishment']","No. 76號, Section 2, Dunhua South Road, Da’an District"
79,Taiwan Cooperative Bank,ChIJvW7hTM2rQjQRzzYfhJ-FeX4,25.0300722,121.5493362,3,19,"['bank', 'finance', 'point_of_interest', 'establishment']","No. 1號, Lane 81, Section 2, Dunhua South Road, Da’an District"
81,合作金庫商業銀行大安分行匯兌,ChIJm-ULTs2rQjQROjSc9ulXTQs,25.030284,121.549201,3,1,"['bank', 'finance', 'point_of_interest', 'establishment']","No. 77, Section 2, Dunhua South Road, Da’an District"
95,上海銀行 信義分行,ChIJ39m2n9KrQjQRmoBy6kTYDZI,25.0316059,121.5483129,3.5,6,"['bank', 'finance', 'point_of_interest', 'establishment']",大安區敦化南路二段40號
96,新光銀行大安分行,ChIJibvrEyyqQjQRArNBrV-9dVg,25.0270145,121.5436612,3.6,8,"['bank', 'finance', 'point_of_interest', 'establishment']",大安區復興南路二段177號
99,元大銀行 台北分行,ChIJiStHntKrQjQR2LT--ds3_pg,25.0306771,121.5484183,3.1,14,"['bank', 'finance', 'point_of_interest', 'establishment']",大安區敦化南路二段56號
101,臺灣銀行 (大安分行),ChIJaxRDRc2rQjQRJdjgDrO0GlE,25.0306449,121.549205,3.7,17,"['bank', 'finance', 'point_of_interest', 'establishment']",大安區敦化南路二段69號
102,第一銀行 世貿分行,ChIJ0XLbRM2rQjQRRf_vMsqn2yI,25.0307989,121.549193,1,2,"['bank', 'finance', 'point_of_interest', 'establishment']",大安區敦化南路二段65號
104,凱基銀行 敦南分行,ChIJ2cHAddKrQjQRCuD8qHkq2UE,25.0316875,121.54838,3.8,10,"['bank', 'finance', 'point_of_interest', 'establishment']",大安區敦化南路二段38號
108,TCB 合作金庫商業銀行 資訊室,ChIJ_b8hGtOrQjQR8qTWoC9DHjs,25.0326169,121.5448446,2.3,3,"['bank', 'finance', 'point_of_interest', 'establishment']",大安區信義路四段30巷9號
114,Land Bank of Taiwan,ChIJk0CY3NKrQjQRA4HHEPNGMUc,25.031793,121.5462229,3.2,11,"['bank', 'finance', 'point_of_interest', 'establishment']","No. 37號, Section 2, Da'an Road, Da’an District"
115,玉山銀行 大安分行,ChIJx9tvHiyqQjQRF9pmsspEfCM,25.0258904,121.5436729,3.8,66,"['bank', 'finance', 'point_of_interest', 'establishment']","1樓, No. 237號, Section 2, Fuxing South Road, Da’an District"
124,Chang Hwa Bank,ChIJR7tivs2rQjQR-ABn9cg5NUc,25.0305889,121.549228,2,4,"['bank', 'finance', 'point_of_interest', 'establishment']","No. 71號, Section 2, Dunhua South Road, Da’an District"
125,Taipei Fubon Bank,ChIJs3azti6qQjQR6fYJIewNuZ8,25.0251705,121.5432363,4.2,23,"['bank', 'atm', 'finance', 'point_of_interest', 'establishment']","No. 236, Section 2, Fuxing South Road, Da’an District"
128,Standard Chartered Bank Dunhua Branch,ChIJ6-9npTKqQjQRpoMQQLXLC5I,25.0316933,121.5491575,2.5,23,"['bank', 'finance', 'point_of_interest', 'establishment']","No. 39號, Section 2, Dunhua South Road, Da’an District"
129,Cathay United Bank Xinyi Branch,ChIJmVOVn9KrQjQRgoYJs0GJrW4,25.0320106,121.5484194,3.1,8,"['bank', 'finance', 'point_of_interest', 'establishment']","No. 32號, Section 2, Dunhua South Road, Da’an District"
143,華泰銀行,ChIJTynxtS6qQjQRoO_OHiVYv2E,25.0247169,121.542985,1.5,4,"['bank', 'finance', 'point_of_interest', 'establishment']",大安區和平東路二段122號
147,第一商業銀行-和平分行,ChIJsVMrRc2rQjQRAfeCHvNVBt0,25.0253859,121.5411609,2.9,13,"['bank', 'finance', 'point_of_interest', 'establishment']",大安區和平東路二段151號
148,華南銀行-和平分行,ChIJSQbtnymqQjQRc41nmXeGK88,25.025577,121.5398302,3.2,12,"['bank', 'finance', 'point_of_interest', 'establishment']",大安區和平東路二段93號
195,國泰世華銀行 大安分行,ChIJmYpUC9GrQjQRka8tridV3L8,25.0382523,121.5458233,3.3,18,"['bank', 'finance', 'point_of_interest', 'establishment']",大安區仁愛路四段33號
196,合作金庫銀行 敦南分行,ChIJY59MddKrQjQR_hs-DVjeAj0,25.0341081,121.5484243,2.8,9,"['bank', 'atm', 'finance', 'point_of_interest', 'establishment']",大安區敦化南路1段362號
197,彰化商業銀行,ChIJqZk2qNGrQjQRAgBMK-3hiyY,25.0382566,121.5456779,3.2,6,"['bank', 'finance', 'point_of_interest', 'establishment']",大安區仁愛路四段31號
198,第一銀行 信維分行,ChIJzRO8j9OrQjQRbhheSxNiChs,25.034738,121.543307,3,12,"['bank', 'finance', 'point_of_interest', 'establishment']",大安區復興南路一段370號
199,合作金庫銀行 信維分行,ChIJu7chlNOrQjQRAksi3qfvKC0,25.0346022,121.5439317,2.8,17,"['bank', 'finance', 'point_of_interest', 'establishment']",大安區復興南路一段303號
200,臺灣企銀 復興分行,ChIJleyledOrQjQRUU-JoouoUgk,25.0337113,121.5433687,2,14,"['bank', 'finance', 'point_of_interest', 'establishment']",大安區復興南路一段390號
201,永豐銀行世貿分行,ChIJC8c1BNOrQjQRwXPBOqZWiUc,25.0331581,121.5450456,2.6,5,"['bank', 'finance', 'point_of_interest', 'establishment']",大安區信義路四段46號
203,華南商業銀行敦化分行,ChIJOUODf9KrQjQRUJxCvQmWKhs,25.0330654,121.5483079,3.7,9,"['bank', 'finance', 'point_of_interest', 'establishment']",大安區敦化南路二段2號
204,滙豐銀行 敦南分行,ChIJU63f-c-rQjQRErPwRaCON4M,25.0360995,121.5492476,3.4,5,"['bank', 'finance', 'point_of_interest', 'establishment']",大安區敦化南路1段271號
205,合作金庫 復興分行,ChIJr6ogQ9GrQjQRDe8bwuYeo7s,25.03743,121.543998,1.6,16,"['bank', 'finance', 'point_of_interest', 'establishment']",大安區復興南路一段237號
206,兆豐銀行（大安分行）,ChIJHVoinNSrQjQR4YaOGvBB_yI,25.0331649,121.542465,3.3,25,"['bank', 'finance', 'point_of_interest', 'establishment']",大安區信義路三段182號
207,渣打銀行 仁愛分行,ChIJv7qCPdGrQjQRmI_eaTQIbk0,25.0382984,121.5440218,2.7,6,"['bank', 'finance', 'point_of_interest', 'establishment']",大安區仁愛路四段1號
208,第一商業銀行-仁愛分行,ChIJyXoaxtGrQjQRFOmD_QE4azc,25.0376092,121.5473003,3.6,11,"['bank', 'finance', 'point_of_interest', 'establishment']",大安區仁愛路四段50號
209,華南銀行-仁愛路分行,ChIJB_F7DdqrQjQRI8FVRUHV8Ds,25.0382878,121.5449065,2,13,"['bank', 'finance', 'point_of_interest', 'establishment']",大安區仁愛路四段25號
210,台北富邦銀行 大安分行,ChIJmYpUC9GrQjQR3HIjS2FlcQE,25.038197,121.5463071,2.3,14,"['bank', 'atm', 'finance', 'point_of_interest', 'establishment']",大安區仁愛路四段37號
211,元大證卷,ChIJaXIvQtGrQjQRxrJZMIgRp68,25.03743,121.543998,5,1,"['bank', 'finance', 'point_of_interest', 'establishment']",大安區復興南路一段237號
212,元大證券仁愛分公司,ChIJI9cl89arQjQRmjiSVmj8_7c,25.0374689,121.5439632,-,-,"['bank', 'finance', 'point_of_interest', 'establishment']","2f, No. 237號, 復興南路一段, 大安區"
213,華南商業銀行信維分行,ChIJLZ6oEtOrQjQRShKavt6pnpQ,25.0331622,121.5441842,-,-,"['bank', 'finance', 'point_of_interest', 'establishment']",大安區信義路四段6號
214,華南銀行 信維分行,ChIJTwBcbdOrQjQRNPcwXx6z8bs,25.0330909,121.5441809,4.1,19,"['bank', 'finance', 'point_of_interest', 'establishment']",大安區信義路四段6號2樓
215,台北富邦銀行 信安分行,ChIJNTdCjDirQjQRTUZ9uYe2-q4,25.0336459,121.5422289,-,-,"['bank', 'finance', 'point_of_interest', 'establishment']","No. 151號, Section 3, Xinyi Road, Da’an District"
216,Cathay United Bank Xin'an Branch,ChIJJYVQU2ypQjQRt8jp3c3J5Wg,25.0336707,121.5420748,3.6,17,"['bank', 'atm', 'finance', 'point_of_interest', 'establishment']","No. 149號, Section 3, Xinyi Road, Da’an District"
217,King's Town Bank,ChIJkQmdy9GrQjQR6M6CKkqH64o,25.038242,121.5472609,3.5,19,"['bank', 'finance', 'point_of_interest', 'establishment']","2樓, No. 75號, Section 4, Ren'ai Road, Da’an District"
218,第一銀行,ChIJ32t2zNGrQjQRnu1Hk8WbVLg,25.0381026,121.5473546,-,-,"['bank', 'finance', 'point_of_interest', 'establishment']",Taiwan
219,Chang Hwa Bank,ChIJR7tivs2rQjQRqoyMY-EKWWc,25.0375116,121.5417289,-,-,"['bank', 'finance', 'point_of_interest', 'establishment']","No. 136號, Section 3, Ren'ai Road, Da’an District"
220,國泰世華銀行 仁愛分行,ChIJAf25L8-rQjQRpZTvzgXGtXg,25.0383054,121.5478488,3.9,10,"['bank', 'finance', 'point_of_interest', 'establishment']","No. 85號, Section 4, Ren'ai Road, Da’an District"
222,E.SUN BANK Dunnan Branch,ChIJIxiYkc2rQjQRZtv3E-REbZI,25.0334879,121.5492679,3.7,40,"['bank', 'finance', 'point_of_interest', 'establishment']","No. 339號, 敦化南路1段, Da’an District"
223,星展銀行 敦南分行,ChIJQ2GCqdKrQjQReCxg-Elo9PM,25.032325,121.548339,2.5,13,"['bank', 'finance', 'point_of_interest', 'establishment']",大安區敦化南路二段26號
254,合作金庫銀行 建國分行,ChIJESqrXtWrQjQRN2JbNybgKLU,25.0337699,121.537388,2.5,14,"['bank', 'finance', 'point_of_interest', 'establishment']",大安區信義路三段77號
256,臺灣銀行ATM,ChIJk4VlI9WrQjQRtguBqPK6xOk,25.0332369,121.5392629,5,2,"['atm', 'bank', 'finance', 'point_of_interest', 'establishment']",大安區信義路三段132號
258,臺灣銀行 信安分行,ChIJAQAAANWrQjQRyaPo2LdE-IQ,25.0332127,121.5392977,3.4,9,"['bank', 'finance', 'point_of_interest', 'establishment']",大安區信義路三段132號
259,台新銀行,ChIJd1pMONWrQjQRFLnhGU5Udyg,25.0332424,121.5388014,3.1,9,"['bank', 'finance', 'point_of_interest', 'establishment']",大安區信義路三段118號
260,行內_大安分行,ChIJ6wtSONWrQjQRJs_w1jodG6M,25.0332211,121.5385882,-,-,"['bank', 'finance', 'point_of_interest', 'establishment']","號, No. 118, 信義路三段, 大安區"
266,台北富邦銀行 仁愛分行,ChIJw8D93dWrQjQRGJO4f2b9Tek,25.037431,121.538455,4,6,"['bank', 'finance', 'point_of_interest', 'establishment']",大安區建國南路一段237號
309,台北富邦银行 敦南分行,ChIJ0yncrMSrQjQR7VnBPdfxnkM,25.0455379,121.548494,3.4,13,"['bank', 'finance', 'point_of_interest', 'establishment']",松山區敦化南路1段108號
310,元大商業銀行 營業部,ChIJBc4MU8KrQjQRWWHCPaJBg8w,25.0473196,121.5484377,2.3,13,"['bank', 'finance', 'point_of_interest', 'establishment']",松山區敦化南路1段66號
311,聯邦商業銀行 敦化分行,ChIJ2YeVOMWrQjQRFQc5zacXtrw,25.0418931,121.5493987,3.5,10,"['bank', 'atm', 'finance', 'point_of_interest', 'establishment']",大安區敦化南路1段209之1號
312,台灣土地銀行,ChIJ4UwFO8OrQjQR8xzeRC9yJM8,25.0479615,121.5483421,2.5,8,"['bank', 'finance', 'point_of_interest', 'establishment']",松山區敦化南路1段2號
313,摩根大通銀行,ChIJMzhqLcOrQjQRZ74IOuUpE8I,25.0479615,121.5483421,-,-,"['bank', 'finance', 'point_of_interest', 'establishment']",松山區敦化南路1段2號14樓
314,第一銀行八德分行,ChIJjQwIOcOrQjQR5Y9ahI0Jk9A,25.0444454,121.5494109,1.8,12,"['bank', 'finance', 'point_of_interest', 'establishment']",松山區敦化南路1段111號
315,菲商菲律賓首都銀行台北分行,ChIJJ27qtNqrQjQRLDS7ZOfdp8c,25.041841,121.548326,4.1,7,"['bank', 'finance', 'point_of_interest', 'establishment']",大安區忠孝東路四段107號2樓
316,欣圓地政士事務所 - 0986011328,ChIJn_-DR8WrQjQR8Uhlk20-_1g,25.042004,121.549308,2.3,3,"['bank', 'finance', 'local_government_office', 'point_of_interest', 'establishment']",大安區敦化南路1段205號
317,國泰世華銀行城中分行,ChIJe1mlStqrQjQRGboeiZRMNBs,25.0438625,121.544038,-,-,"['bank', 'finance', 'point_of_interest', 'establishment']",大安區復興南路一段99號
318,新光銀行敦南分行,ChIJNw7Z6M-rQjQR0HlxJeq0Ab0,25.040594,121.5492687,2,7,"['bank', 'finance', 'point_of_interest', 'establishment']",大安區敦化南路1段223號
319,上海商業儲蓄銀行-忠孝分行,ChIJOYzY98-rQjQRkjHnRbQn3z4,25.0405889,121.54934,3.5,8,"['bank', 'finance', 'point_of_interest', 'establishment']",大安區敦化南路1段225號
320,彰化銀行 忠孝東路分行,ChIJlYHsbcWrQjQRLC-StI3HSd4,25.0412939,121.550474,3.2,6,"['bank', 'finance', 'point_of_interest', 'establishment']",大安區忠孝東路四段164號
321,星展銀行 松山分行,ChIJibRrLcOrQjQRVf1iJjMRWOM,25.0479478,121.5480952,2.2,5,"['bank', 'finance', 'point_of_interest', 'establishment']",松山區敦化南路1段2號16樓
322,玉山銀行（中崙分行）,ChIJW7fYJMKrQjQRLoObjM--Kh8,25.0480383,121.5485193,2.8,33,"['bank', 'finance', 'point_of_interest', 'establishment']",松山區敦化南路1段2之1號
323,玉山銀行 復興分行,ChIJu4ZwFdqrQjQRCy8AueNumVE,25.0431589,121.5440879,2.5,23,"['bank', 'finance', 'point_of_interest', 'establishment']",大安區復興南路一段127號
324,臺灣銀行 忠孝分行,ChIJl61YNcWrQjQRP4-5UNtSNQQ,25.0420544,121.5484852,2.9,39,"['bank', 'finance', 'point_of_interest', 'establishment']",大安區敦化南路1段202號
325,中信商銀 忠孝分行,ChIJC_6zl9qrQjQRGk2ZzeTI9_I,25.0420022,121.5467576,2.8,24,"['bank', 'finance', 'point_of_interest', 'establishment']",大安區忠孝東路四段71號
326,國泰世華銀行敦南分行,ChIJg2YLJMWrQjQRSXOX1xpGHD4,25.042725,121.549468,3.3,24,"['bank', 'finance', 'point_of_interest', 'establishment']",大安區敦化南路1段185號
327,合作金庫銀行 復旦分行,ChIJfyKalcSrQjQRHSRjDrxqY5E,25.0445569,121.54991,2.4,13,"['bank', 'finance', 'point_of_interest', 'establishment']",大安區市民大道四段100號
328,台灣土地銀行 忠孝分行,ChIJ6zgkFdqrQjQRCnrTGRODm-c,25.042936,121.544077,2.4,18,"['bank', 'finance', 'point_of_interest', 'establishment']",大安區復興南路一段129號
329,Taipei Fubon Bank Zhongxiao Branch,ChIJ-46qTMWrQjQR7ZoNC5HLojA,25.041751,121.548311,2.6,16,"['bank', 'atm', 'finance', 'point_of_interest', 'establishment']","No. 107號, Section 4, Zhongxiao East Road, Da’an District"
330,永豐銀行忠孝分行,ChIJW_yWgtCrQjQRSHmJ03YXY3I,25.0406475,121.5479007,3.5,13,"['bank', 'finance', 'point_of_interest', 'establishment']","No. 1, Lane 236, Section 1, Dunhua South Road, Da’an District"
331,Bank SinoPac,ChIJW_yWgtCrQjQRuqLfqYwuM60,25.0414226,121.5448616,3.4,16,"['bank', 'finance', 'point_of_interest', 'establishment']","No. 48, Section 4, Zhongxiao East Road, Da’an District"
332,First Commercial Bank Fuxing Branch,ChIJhZfQ6durQjQRWi8WBPV78X0,25.045857,121.543643,3.1,10,"['bank', 'finance', 'point_of_interest', 'establishment']","No. 36之10號, Section 1, Fuxing South Road, Zhongshan District"
333,富邦證券投資信託股份有限公司,ChIJybstU9urQjQRonoiADpE2s4,25.0455409,121.5484453,4,1,"['bank', 'finance', 'point_of_interest', 'establishment']","No. 108, 敦化南路1段, Da’an District"
334,中國信託銀行,ChIJm7FUmdqrQjQRPqe72k53C3I,25.0414766,121.546653,3,1,"['bank', 'finance', 'point_of_interest', 'establishment']",Taiwan
335,O Bank Zhongxiao Dunhua,ChIJ-4fzAzSrQjQReneGTZT9fbo,25.0417491,121.5492257,2.2,5,"['bank', 'finance', 'point_of_interest', 'establishment']","No, No. 135, 忠孝東路四段, 大安區"
336,Cathay United Bank,ChIJV-rcN9qrQjQReIIqFyKBIJE,25.0438508,121.5440891,3,9,"['bank', 'finance', 'point_of_interest', 'establishment']","No. 99號, Section 1, Fuxing South Road, Da’an District"
337,Union Bank of Taiwan,ChIJn7Qwk9urQjQRSbA7fn0XOV8,25.0460629,121.5441717,3.2,13,"['bank', 'finance', 'point_of_interest', 'establishment']","微風廣場2樓, No. 39號, Section 1, Fuxing South Road, Songshan District"
338,Yuanta Bank Department of Business,ChIJjdmtSsOrQjQRK2eHM8zfNGs,25.0473196,121.5484378,1,1,"['bank', 'finance', 'point_of_interest', 'establishment']","No. 66號, 敦化南路1段, Songshan District"
339,大眾銀行,ChIJuRtjNcOrQjQRttT--iqcodI,25.0473472,121.5484867,-,-,"['bank', 'finance', 'point_of_interest', 'establishment']","No. 66, 敦化南路1段, Songshan District"
340,永豐商業銀行股份有限公司儲蓄部,ChIJaYTggtCrQjQRJGmUmZEVdLc,25.0414164,121.5449043,-,-,"['bank', 'finance', 'point_of_interest', 'establishment']","No. 50, Section 4, Zhongxiao East Road, Da’an District"
341,元大商業銀行 敦安分行,ChIJVQDJZEKrQjQR0z2ar-26hIE,25.0404084,121.5462377,4.7,12,"['bank', 'finance', 'point_of_interest', 'establishment']","1樓, No. 97號, Section 1, Da'an Road, Da’an District"
342,Bank of Pansin,ChIJXbBLi9yrQjQRCDuhoV9HgVs,25.047911,121.545854,2.6,7,"['bank', 'finance', 'point_of_interest', 'establishment']","No. 360號, Section 2, Bade Road, Songshan District"
343,元大商業銀行股份有限公司,ChIJoaSJw9yrQjQRYjzT-hj2jl8,25.0480381,121.5473381,-,-,"['bank', 'finance', 'point_of_interest', 'establishment']","No. 424號, Section 2, Bade Road, Songshan District"
349,中國信託復興分行,ChIJTY1IxM-rQjQRCWP2z5P936E,25.0387133,121.5493854,4.1,8,"['bank', 'finance', 'point_of_interest', 'establishment']",大安區敦化南路1段251號1樓
355,台北富邦銀行 安和分行,ChIJBc9fEc-rQjQRoWuxb2UxpC0,25.0382513,121.5520202,3,24,"['bank', 'finance', 'point_of_interest', 'establishment']",大安區仁愛路四段169號
370,美商美國紐約梅隆銀行股份有限公司台北分公司,ChIJXSEp6c-rQjQRi6VDbUoAZww,25.0394894,121.5493278,1.4,5,"['bank', 'finance', 'point_of_interest', 'establishment']","No. 1號11樓, 松高路, Xinyi District"
373,台新國際商業銀行《《《公司,ChIJPWoaS86rQjQRSIxKxi_JhMI,25.0373766,121.5497874,3.7,3,"['bank', 'finance', 'point_of_interest', 'establishment']","No. 118, Section 4, Ren'ai Road, Da’an District"
374,台新票券金融股份有限公司,ChIJW-MQS86rQjQRQqMIEtHr60k,25.0375788,121.5500629,-,-,"['bank', 'finance', 'point_of_interest', 'establishment']","No. 118, Section 4, Ren'ai Road, Da’an District"
375,台新金控大樓,ChIJ8S79Sc6rQjQRzgr8KG0es8w,25.0373666,121.5498543,4.7,3,"['bank', 'finance', 'point_of_interest', 'establishment']","No. 118號, Section 4, Ren'ai Road, Da’an District"
376,Taishin Bank Dunnan Branch,ChIJW-MQS86rQjQRml-uyHxfF08,25.0374126,121.5499496,3.5,41,"['bank', 'finance', 'point_of_interest', 'establishment']","No. 118號, Section 4, Ren'ai Road, Da’an District"
378,台北富邦商業銀行股份有限公司大安分行襄理出納,ChIJEeCwr8-rQjQRT3LDZionQY4,25.0381361,121.5507148,-,-,"['bank', 'finance', 'point_of_interest', 'establishment']","Section 4, Ren'ai Road, Da’an District"
383,台北富邦銀行 懷生分行,ChIJXyFInNerQjQRnv3Ua2WovCU,25.0418844,121.5396385,2,21,"['bank', 'finance', 'point_of_interest', 'establishment']",大安區忠孝東路三段215號
391,臺灣企銀,ChIJBfoCVNerQjQRmKR3WWzqbSA,25.041855,121.542361,2.4,12,"['bank', 'atm', 'finance', 'point_of_interest', 'establishment']",大安區忠孝東路三段267號
392,華南銀行 懷生分行,ChIJoyhiXderQjQR4jo0QQrZC_g,25.041875,121.541227,1.8,16,"['bank', 'finance', 'point_of_interest', 'establishment']",大安區忠孝東路三段247號
395,台灣中小企業銀行忠孝分行,ChIJJchKUderQjQRF9SC8GPrqGs,25.0418706,121.5423658,3.4,8,"['bank', 'finance', 'point_of_interest', 'establishment']",大安區忠孝東路三段265號
402,滙豐銀行 復興分行,ChIJSV0Gvd-rQjQRsve3uJX24zc,25.0471223,121.5436349,4.5,4,"['bank', 'finance', 'point_of_interest', 'establishment']",中山區復興南路一段2號
403,華泰銀行(營業部),ChIJzfi2G9yrQjQRYBEW1PEIM7I,25.0481436,121.5432661,4.3,3,"['bank', 'finance', 'point_of_interest', 'establishment']",中山區長安東路二段246號
405,永豐銀行中崙分行,ChIJMaIX_turQjQROmNjmOYXtpk,25.0468732,121.5425549,4.3,8,"['bank', 'finance', 'point_of_interest', 'establishment']",中山區八德路二段306號2樓
407,板信商業銀行(安東分行),ChIJa4xn8tirQjQRjH2iac9hAOA,25.0462544,121.5386641,3,2,"['bank', 'finance', 'point_of_interest', 'establishment']",中山區八德路二段188號
411,彰化銀行,ChIJz1ju59irQjQRLG4O-K5lY1M,25.0467317,121.5393168,2.5,8,"['bank', 'finance', 'point_of_interest', 'establishment']",中山區八德路二段201號
419,HSBC滙豐,ChIJ_fqMCNyrQjQRM4XpoZyI6qw,25.0473646,121.5435094,-,-,"['bank', 'finance', 'point_of_interest', 'establishment']",中山區八德路二段332號
420,華南銀行-長安分行,ChIJlxQd59irQjQRVKn60msm2Oc,25.0468445,121.539871,2.9,10,"['bank', 'finance', 'point_of_interest', 'establishment']",中山區八德路二段205號
422,第一銀行信用卡處,ChIJt0I55tirQjQRZKPw7DmoPW8,25.0466509,121.539211,-,-,"['bank', 'finance', 'point_of_interest', 'establishment']","號, No. 203, 八德路二段, 中山區"
423,華南商業銀行財富管理部,ChIJt0I55tirQjQRxygBg2WpiHI,25.0466509,121.539211,-,-,"['bank', 'finance', 'point_of_interest', 'establishment']","No. 203, Section 2, Bade Road, Zhongshan District"
424,Taipei Fubon Bank Zhonglun Branch,ChIJW7YnEtyrQjQRD2z7hb6ivDk,25.048041,121.543693,3.1,13,"['bank', 'atm', 'finance', 'point_of_interest', 'establishment']","No. 6號, Fuxing North Road, Zhongshan District"
425,永豐銀行萊爾富ＡＴＭ,ChIJUczPpN6rQjQRu1uliQMy0Mo,25.0484252,121.5419511,-,-,"['bank', 'finance', 'point_of_interest', 'establishment']","1樓, No. 171號之7, Section 2, Chang'an East Road, Zhongshan District"
461,台北富邦銀行 敦北分行,ChIJp3gSRu-rQjQRyBIz-bjjq6o,25.0574729,121.5471267,3.2,18,"['bank', 'finance', 'point_of_interest', 'establishment']",松山區民生東路三段138號
462,彰化商業銀行 城東分行,ChIJYycX8d2rQjQRC_ocDAWScW8,25.0520313,121.5436572,3.7,20,"['bank', 'finance', 'point_of_interest', 'establishment']",中山區南京東路三段225號
463,中國信託敦北分行,ChIJOSyBgOirQjQRDg__2qwR_q4,25.0543242,121.5483314,2.8,40,"['bank', 'finance', 'point_of_interest', 'establishment']",松山區敦化北路122號
464,兆豐銀行 民生分行,ChIJe7Pu1uWrQjQR5Su7Jva5fc0,25.0575114,121.5459348,3.1,8,"['bank', 'finance', 'point_of_interest', 'establishment']",松山區民生東路三段128號
465,法商東方匯理銀行,ChIJkV5LkuirQjQRYj_d5kiLJWI,25.054494,121.5494045,5,1,"['bank', 'finance', 'point_of_interest', 'establishment']",松山區敦化北路167號16樓
466,富邦綜合證券股份有限公司,ChIJfdAH5-WrQjQRK7BZe3GPKJo,25.0574919,121.5471682,2.7,6,"['bank', 'finance', 'point_of_interest', 'establishment']",松山區民生東路三段138號B1樓
467,兆豐銀行 台北復興分行,ChIJRcaB4d2rQjQRQjd9KwbvmKg,25.0516319,121.5428829,2.9,25,"['bank', 'finance', 'point_of_interest', 'establishment']",中山區南京東路三段198號
468,第一商業銀行,ChIJmcED8-WrQjQRGQgP5yf5ipQ,25.0579239,121.5478483,2.9,10,"['bank', 'finance', 'point_of_interest', 'establishment']",松山區民生東路三段131號
469,京城銀行 松山分行 8樓,ChIJfYHqkeirQjQRY5vIe6ZdUIU,25.054494,121.5494045,3.9,20,"['bank', 'finance', 'point_of_interest', 'establishment']",松山區敦化北路167號8樓
470,康和期貨顧問事業部,ChIJHwCDbOerQjQRzhab4ZfjhNQ,25.0534498,121.5445045,-,-,"['bank', 'finance', 'point_of_interest', 'establishment']","號, No. 143, 復興北路, 松山區"
471,陽信銀行（國外部）,ChIJRQPkauerQjQRV8wBpXrkKfw,25.0534338,121.5444005,2.5,2,"['bank', 'finance', 'point_of_interest', 'establishment']",松山區復興北路143號2樓
472,康和綜合證券台北分公司,ChIJvTJNauerQjQRmzaIWsx5lQ0,25.0534141,121.5443146,5,1,"['bank', 'finance', 'point_of_interest', 'establishment']",松山區復興北路143號號 3 樓
473,國泰世華銀行 永平分行,ChIJifQ85uarQjQRCpub4fxxCa0,25.0555655,121.5443324,2.9,13,"['bank', 'finance', 'point_of_interest', 'establishment']",松山區復興北路199號
474,渣打銀行 敦北分行 營業部,ChIJC2glAuarQjQRDmFqwsk6xxc,25.05654,121.5484948,2.4,38,"['bank', 'finance', 'point_of_interest', 'establishment']",松山區敦化北路168號
475,ARES國際商務中心 ARES business center（籌備中）,ChIJA0NZQeerQjQRUSgdMXBL_PM,25.053477,121.543759,4.7,7,"['bank', 'finance', 'point_of_interest', 'establishment']",中山區復興北路164 號8 樓
476,國泰世華商業銀行股份有限公司慶城分行,ChIJh4HqkeirQjQR8kU_8m0vckM,25.0573498,121.5478158,3.6,14,"['bank', 'finance', 'point_of_interest', 'establishment']",松山區民生東路三段158號
477,香港商東亞銀行,ChIJZWYlAuarQjQRGPokMG4C9cQ,25.051333,121.548479,-,-,"['bank', 'finance', 'point_of_interest', 'establishment']",松山區敦化北路88號10樓
478,元大銀行 敦化分行,ChIJZ2fAtOirQjQRS4xGcxS8fNA,25.0565015,121.5503005,2.8,5,"['bank', 'finance', 'point_of_interest', 'establishment']","前棟, No. 201號1, 敦化北路, 松山區"
479,元大銀行 南京東路分行,ChIJT3kS-92rQjQRYhIIpNRf3xo,25.0521004,121.5432871,2,12,"['bank', 'finance', 'point_of_interest', 'establishment']",中山區南京東路三段221號
480,三菱UFJ銀行台北分行,ChIJC5AEMuSrQjQRiVB0HMiLY8w,25.058088,121.545232,2.8,5,"['bank', 'finance', 'point_of_interest', 'establishment']",松山區民生東路三段109號
481,比利時商富通銀行,ChIJGcUD8-WrQjQRGcgZfQGvcuc,25.0579239,121.5478483,-,-,"['bank', 'finance', 'point_of_interest', 'establishment']","5樓, No. 131號, Section 3, Minsheng East Road, Songshan District"
482,First Commercial Bank,ChIJFxeHFuerQjQRBNH36XltICA,25.054063,121.544447,2.7,7,"['bank', 'finance', 'point_of_interest', 'establishment']","No. 169號, Fuxing North Road, Songshan District"
483,玉山銀行 長春分行,ChIJ6bn0POerQjQRy_5hf9C5bLc,25.0542459,121.543802,2.4,16,"['bank', 'finance', 'point_of_interest', 'establishment']","No. 178號, Fuxing North Road, Zhongshan District"
484,Bank Of Taiwan,ChIJEfYDFOerQjQRQmzY_xI2L_g,25.053975,121.5443208,3.1,21,"['bank', 'finance', 'point_of_interest', 'establishment']","No. 167號, Fuxing North Road, Songshan District"
485,Taishin International Bank Fuxing Branch,ChIJB1oQXOerQjQRGRsmoK-CEQw,25.0527389,121.5438099,2.4,25,"['bank', 'finance', 'point_of_interest', 'establishment']","No. 150號, Fuxing North Road, Zhongshan District"
486,KGI Bank Chengdong Branch,ChIJmb-P7d2rQjQRBIpZhFbF5iA,25.0516611,121.5437483,2.5,13,"['bank', 'finance', 'point_of_interest', 'establishment']","No. 224號, Section 3, Nanjing East Road, Zhongshan District"
487,Union Bank of Taiwan,ChIJC5AEMuSrQjQROVBjjrzDXhI,25.058088,121.545232,3.1,31,"['bank', 'finance', 'point_of_interest', 'establishment']","No. 109號, Section 3, Minsheng East Road, Songshan District"
488,玉山銀行（營業部）,ChIJUb2rxuWrQjQRPnCwmUpAAO0,25.058073,121.546757,3.2,80,"['bank', 'finance', 'point_of_interest', 'establishment']","No. 117號, Section 3, Minsheng East Road, Songshan District"
489,Cathay United Bank Fuxing Branch,ChIJX6ot_-erQjQReiFmFYwHdLw,25.0515355,121.5445387,4.2,52,"['bank', 'finance', 'point_of_interest', 'establishment']","No. 248號, Section 3, Nanjing East Road, Songshan District"
490,Taishin International Bank,ChIJOdK8iOerQjQRJtpQO1ChbGw,25.052091,121.546323,3.4,25,"['bank', 'finance', 'point_of_interest', 'establishment']","No. 289號, Section 3, Nanjing East Road, Songshan District"
491,Mega International Commercial Bank,ChIJXQq4FuirQjQRd7imyWKUMd0,25.0513338,121.5484798,3.2,18,"['bank', 'finance', 'point_of_interest', 'establishment']","No. 88之1號, DunHua North Road, Songshan District"
492,The Shanghai Commercial & Savings Bank,ChIJZV9A6earQjQR14-wZqGpFc4,25.055847,121.5443493,3.1,16,"['bank', 'finance', 'point_of_interest', 'establishment']","No. 203號, Fuxing North Road, Songshan District"
493,行內_南東分行,ChIJOdK8iOerQjQRHxeChWnkLnQ,25.052091,121.546323,-,-,"['bank', 'finance', 'point_of_interest', 'establishment']","號, No. 289, 南京東路三段, 松山區"
494,Taiwan Business Bank Nanjing E. Rd. Branch,ChIJZwmf8-erQjQRLH1UnA1o_vU,25.0520062,121.5470685,2.6,8,"['bank', 'finance', 'point_of_interest', 'establishment']","1樓, No. 311號, Section 3, Nanjing East Road, Songshan District"
495,Sunny Bank,ChIJeyB5a-erQjQRquE_ro84rFY,25.0534347,121.5444045,5,1,"['bank', 'finance', 'point_of_interest', 'establishment']","No. 143號, Fuxing North Road, Songshan District"
496,Shin Kong Bank Qing Cheng Branch,ChIJZ-NmYeerQjQR12vPFYZwNHg,25.0529054,121.5447301,3.7,6,"['bank', 'finance', 'point_of_interest', 'establishment']","No. 1-1, Qingcheng Street, Songshan District"
497,Bank of Pansin,ChIJhU7f9OWrQjQRWrdIjLemC8k,25.057946,121.5482359,4,4,"['bank', 'finance', 'point_of_interest', 'establishment']","No. 133之1, Section 3, Minsheng East Road, Songshan District"
498,HSBC Dunhua North Branch,ChIJu6ZMkuirQjQRI6Jw0ayIrGQ,25.054494,121.5494045,3,8,"['bank', 'finance', 'point_of_interest', 'establishment']","No. 167號, DunHua North Road, Songshan District"
499,瑞穂銀行,ChIJseP_k-irQjQRZ2n1PfeBkC0,25.0547273,121.5494892,3,1,"['bank', 'finance', 'point_of_interest', 'establishment']","No. no 173, DunHua North Road, Songshan District"
500,帝國大廈,ChIJg9zo6OarQjQR2pOjoUjeWOA,25.0557172,121.544386,-,-,"['bank', 'finance', 'point_of_interest', 'establishment']","號, No. 201, 復興北路, 松山區"
501,Land Bank of Taiwan,ChIJe6242-WrQjQRfPUQoZNFFa0,25.057314,121.5439074,3.8,12,"['bank', 'finance', 'point_of_interest', 'establishment']","No. 234號, Fuxing North Road, Zhongshan District"
502,皮皮公司,ChIJIyq-quirQjQRJCiRnc5ue9k,25.05654,121.5484948,-,-,"['bank', 'finance', 'point_of_interest', 'establishment']","號, No. 168, 敦化北路, 松山區"
503,DBS Bank Nanjing East Road Branch,ChIJUfuwUt2rQjQRsxP3Fxr3ncQ,25.0513327,121.5484797,2.8,11,"['bank', 'finance', 'point_of_interest', 'establishment']","1樓, No. 88, DunHua North Road, Songshan District"
504,Entie Commercial Bank,ChIJIS638OWrQjQR28oT0NwMG9w,25.0575893,121.5457307,3.2,5,"['bank', 'atm', 'finance', 'point_of_interest', 'establishment']","No. 126號, Section 3, Minsheng East Road, Songshan District"
505,Bank Of Taiwan,ChIJTZJiQe-rQjQR7-yICKUQatQ,25.0576183,121.5499115,2.7,37,"['bank', 'finance', 'point_of_interest', 'establishment']","No. 205, DunHua North Road, Songshan District"
506,Taishin International Bank,ChIJrywa7OWrQjQRxXeO56jIoRM,25.0579252,121.5482507,4.2,13,"['bank', 'finance', 'point_of_interest', 'establishment']","No. 133號, Section 3, Minsheng East Road, Songshan District"
507,Hua Nan Bank Nanjing East Road Branch,ChIJBZMn_d2rQjQREkJb947jbkI,25.0520992,121.5430852,2.6,12,"['bank', 'finance', 'point_of_interest', 'establishment']","No. 217號, Section 3, Nanjing East Road, Zhongshan District"
508,日商東京三菱銀行股份有限公司台北分行,ChIJC5AEMuSrQjQR-uwwznnBtKU,25.058088,121.545232,3,1,"['bank', 'finance', 'point_of_interest', 'establishment']","9樓, No. 109號, Section 3, Minsheng East Road, Songshan District"
509,聯邦商業銀行股份有限公司,ChIJvaIg6earQjQRiygbqBAJ0gY,25.0581445,121.5452296,2.5,4,"['bank', 'finance', 'point_of_interest', 'establishment']","14樓, No. 109 號, Section 3, Minsheng East Road, Songshan District"
510,華固名鋳,ChIJewSmmBCrQjQR0HlZclabQeI,25.0504379,121.5485953,4.5,2,"['bank', 'finance', 'point_of_interest', 'establishment']","No. 8號, DunHua North Road, Songshan District"
511,台中銀行復興分行,ChIJhzKjud2rQjQRQRMheEGc4vw,25.050584,121.5442286,2.9,7,"['bank', 'finance', 'point_of_interest', 'establishment']","No. 59號, Fuxing North Road, Songshan District"
512,世邦交通事業股份有限公司,ChIJ1R9B4d2rQjQRHEOt2K27u3c,25.051547,121.542993,4,1,"['bank', 'finance', 'point_of_interest', 'establishment']","10樓, No. 200號, Section 3, Nanjing East Road, Zhongshan District"
530,合作金庫銀行 台北分行,ChIJxdlmt92rQjQRHl0ZLhEf2Wk,25.0503174,121.5442465,3.4,12,"['bank', 'finance', 'point_of_interest', 'establishment']",松山區復興北路55號
535,合作金庫商業銀行國際金融業務支庫,ChIJmzoK-NyrQjQREKNHjz79fAg,25.0487568,121.5455719,-,-,"['bank', 'finance', 'point_of_interest', 'establishment']","Taiwan Province, 台北市 松山區長安東路二段225號"
538,Taiwan Cooperative Bank,ChIJAQAAAHOpQjQRpjvGvM-VL_g,25.048416,121.5452845,3.4,38,"['bank', 'finance', 'point_of_interest', 'establishment']","No. 225, Section 2, Chang'an East Road, Songshan District"
540,CTBC Bank Chang An Branch,ChIJvx_MO9yrQjQRS6RGQoryRLI,25.0489953,121.5437293,3.6,31,"['bank', 'finance', 'point_of_interest', 'establishment']","No. 28號, Fuxing North Road, Zhongshan District"
552,渣打銀行 東台北分行,ChIJi9JGSN6rQjQR_G-0eUWhLJM,25.0516661,121.5415041,2.4,29,"['bank', 'finance', 'point_of_interest', 'establishment']",中山區南京東路三段168號10號樓之3
557,遠東銀行（南京東路分行）,ChIJQ2B8-92rQjQRw5J56ASwhuU,25.0521402,121.5393976,3.8,4,"['bank', 'finance', 'point_of_interest', 'establishment']",中山區南京東路三段101號
558,國泰世華銀行 建國分行,ChIJ5b7mR96rQjQRr11I_fHh9R0,25.051668,121.5409979,3.6,38,"['bank', 'finance', 'point_of_interest', 'establishment']",中山區南京東路三段132號
561,玉山銀行 台北分行,ChIJJVuavd-rQjQRc7TyOauYT9c,25.0517706,121.5387519,3,16,"['bank', 'finance', 'point_of_interest', 'establishment']",中山區南京東路三段68號
562,中國信託 龍江簡易分行,ChIJp09jld-rQjQR1NvoZsrMx7g,25.0521964,121.5382807,4.5,10,"['bank', 'finance', 'point_of_interest', 'establishment']",中山區南京東路三段65號1F
572,First Commercial Bank (Cheng-Tung Branch),ChIJK4otyt-rQjQRJHuf0PJ1EWs,25.0522519,121.5395419,3.1,14,"['bank', 'finance', 'point_of_interest', 'establishment']","No. 103號, Section 3, Nanjing East Road, Zhongshan District"
573,Bank SinoPac,ChIJ6fWF9WapQjQRTisfhSTy1tg,25.0517109,121.5382046,2.4,36,"['bank', 'finance', 'point_of_interest', 'establishment']","1F, No. 36, Section 3, Nanjing East Road, Zhongshan District"
579,板信商業銀行 南京東路分行,ChIJQ0cOR96rQjQRw7XgB2CS0d8,25.0516973,121.5407857,3,3,"['bank', 'finance', 'point_of_interest', 'establishment']","號, No. 130, 南京東路三段, 中山區"
580,法商佳信銀行股份有限公司台北分行,ChIJZ2YNSN6rQjQRr_BDWG6zmQg,25.0517921,121.5405261,-,-,"['bank', 'finance', 'point_of_interest', 'establishment']","No. 130, Section 3, Nanjing East Road, Zhongshan District"
583,土地銀行 南京東路分行,ChIJiYGpu9-rQjQRwQVzJGS_ET8,25.051755,121.5389392,1,1,"['bank', 'finance', 'point_of_interest', 'establishment']","10489 號 1 樓, No. 70, 南京東路三段, 中山區"
584,玉山銀行台北企金中心,ChIJmcB_vN-rQjQR2wUPDOfAvVw,25.0517737,121.5387771,-,-,"['bank', 'finance', 'point_of_interest', 'establishment']","No. 68號3樓, Lane 109, Section 3, Nanjing East Road, Zhongshan District"
585,華泰商業銀行股份有限公司南京東路分行,ChIJtXYZyN-rQjQROtqdd5iuTn0,25.0521558,121.5391301,3.7,3,"['bank', 'finance', 'point_of_interest', 'establishment']","1樓, No. 91號之3, Section 3, Nanjing East Road, Zhongshan District"
586,Hwatai Bank,ChIJV5VDuN-rQjQR463OgYPs75Y,25.0521409,121.5390247,1,1,"['bank', 'finance', 'point_of_interest', 'establishment']","No. 91之3號, Section 3, Nanjing East Road, Zhongshan District"
591,永豐銀行 信託部,ChIJU8YzDQCrQjQRkutU2IRwGrM,25.0516952,121.5382629,-,-,"['bank', 'finance', 'point_of_interest', 'establishment']","4樓, No. 36號, Section 3, Nanjing East Road, Zhongshan District"
601,聯邦商業銀行 長春分行,ChIJV2P5-t2rQjQRjIKS2PpiM1g,25.0544789,121.5408269,2.3,3,"['bank', 'finance', 'point_of_interest', 'establishment']",中山區長春路328號
602,台新銀行 國外部,ChIJefvqBuCrQjQRHjuW8B7oIt4,25.0541579,121.537456,3.4,7,"['bank', 'finance', 'point_of_interest', 'establishment']",中山區建國北路二段17號
613,合作金庫銀行 民生分行,ChIJX6HznearQjQRPb23ESn1TGM,25.0579919,121.5438,2.3,26,"['bank', 'finance', 'point_of_interest', 'establishment']",中山區民生東路三段77號
616,中國信託東民生分行,ChIJS-5UeeGrQjQRbcgt8Oex4kE,25.0582379,121.540197,3.4,18,"['bank', 'finance', 'point_of_interest', 'establishment']",中山區民生東路三段51號
631,Taiwan Cooperative Bank,ChIJ9zQLFeCrQjQR2TEoL-ZuddM,25.0547838,121.5382598,2.7,7,"['bank', 'finance', 'point_of_interest', 'establishment']","No. 201號, Changchun Road, Zhongshan District"
632,玉山銀行 民生分行,ChIJLwImeeGrQjQRibKLmRwo2Oc,25.0580576,121.5401503,3,16,"['bank', 'finance', 'point_of_interest', 'establishment']","No. 49號, Section 3, Minsheng East Road, Zhongshan District"
638,台新國際商業銀行股份有限公司,ChIJefvqBuCrQjQRMhiweu-Jwvc,25.0541631,121.5374555,5,3,"['bank', 'finance', 'point_of_interest', 'establishment']","No. 17, Section 2, Jianguo North Road, Zhongshan District"
639,牛頭貨櫃運輸儲運,ChIJywzht-GrQjQRSQANUZrIYas,25.0569598,121.5384416,-,-,"['bank', 'finance', 'point_of_interest', 'establishment']","號, No. 21, 合江街70巷, 中山區"
641,Bank SinoPac,ChIJ6fWF9WapQjQR6p7xn_Bekfw,25.0530787,121.5372822,3.4,18,"['bank', 'finance', 'point_of_interest', 'establishment']","No. 9-1, Section 2, Jianguo North Road, Zhongshan District"
695,美國運通信用卡會員服務部,ChIJyWYL9OSrQjQRMSToITf9mZA,25.0605489,121.544413,1.8,4,"['bank', 'finance', 'point_of_interest', 'establishment']",松山區復興北路363號12樓
696,上海銀行 敦北分行,ChIJT71bZuerQjQRd2hFqMsAM4c,25.0617389,121.546874,3.2,6,"['bank', 'finance', 'point_of_interest', 'establishment']",松山區民權東路三段142號
697,國泰銀行,ChIJfzAjSeWrQjQRhA0k_jUrAa0,25.061756,121.547273,4,1,"['bank', 'finance', 'point_of_interest', 'establishment']",松山區民權東路三段144號號
698,國泰世華銀行 民權分行,ChIJfzAjSeWrQjQRf5PjkFeGIkE,25.061756,121.547273,3,16,"['bank', 'finance', 'point_of_interest', 'establishment']",松山區民權東路三段144號
699,渣打國際商業銀行,ChIJHbyttuSrQjQRd3-Qauwh5-g,25.0627827,121.5438693,2.3,20,"['bank', 'finance', 'point_of_interest', 'establishment']",中山區復興北路420號
700,兆豐銀行（松山機場分行）,ChIJ2X02ZvCrQjQRp00lTBVB5ys,25.063718,121.549643,4,1,"['bank', 'finance', 'point_of_interest', 'establishment']",松山區敦化北路338號
701,安聯投信,ChIJ-ftyjeSrQjQRfeuceAc3VcE,25.0609234,121.543976,4.2,19,"['bank', 'finance', 'point_of_interest', 'establishment']",中山區復興北路378號號 5 樓
702,台北富邦銀行 民權分行,ChIJmcsoWuOrQjQRjbOZnzOD7BE,25.062585,121.5423309,2.6,22,"['bank', 'finance', 'point_of_interest', 'establishment']",中山區民權東路三段37號
703,國泰世華銀行 敦北分行,ChIJzw5vmu-rQjQRqCMVMfyFMZ8,25.05968,121.549362,3,16,"['bank', 'finance', 'point_of_interest', 'establishment']",松山區敦化北路236號
704,第一商業銀行,ChIJCUf37uSrQjQRVYI7jWY4UXI,25.0610319,121.5446219,2.4,8,"['bank', 'finance', 'point_of_interest', 'establishment']",松山區復興北路365號
705,中國信託銀行 復北分行,ChIJ83oL9OSrQjQR4rg9o6AD6mI,25.060654,121.5444389,3.7,9,"['bank', 'finance', 'point_of_interest', 'establishment']",松山區復興北路363號1樓
706,彰化商業銀行 復興分行,ChIJYycX8d2rQjQRJ0UTF18K_jQ,25.0617472,121.5444987,3.2,17,"['bank', 'finance', 'point_of_interest', 'establishment']",松山區復興北路367號
707,板信商業銀行 復興分行,ChIJb3wDOeyrQjQRyqHHLy3x3do,25.0632225,121.5440161,2,2,"['bank', 'finance', 'point_of_interest', 'establishment']",中山區復興北路426-428號
708,彰化商業銀行ATM,ChIJF3fI8-SrQjQRCZyPe4FVX-Y,25.0617171,121.5444839,3,1,"['bank', 'finance', 'point_of_interest', 'establishment']",松山區復興北路367號
709,遠東國際商業銀行﹝台北復興簡易型分行﹞,ChIJPxUP5u6rQjQRC-Cn4XvgbMM,25.0628204,121.5440169,-,-,"['bank', 'finance', 'point_of_interest', 'establishment']",中山區復興北路422號1樓
710,安泰商業銀行國外部,ChIJ__8v9uSrQjQRI1PpK6ez2aI,25.060227,121.5446271,-,-,"['bank', 'finance', 'point_of_interest', 'establishment']",臺灣省台北市 松山區復興北路337號8樓
711,華南銀行 復興分行,ChIJN2fSWOSrQjQRXEJLd9vjEEA,25.0600848,121.5445117,2.5,20,"['bank', 'finance', 'point_of_interest', 'establishment']",松山區復興北路337號
712,安泰商業銀行股份有限公司,ChIJN2fSWOSrQjQRJmnjS8pvlk8,25.0600716,121.5444833,4,1,"['bank', 'finance', 'point_of_interest', 'establishment']",松山區復興北路337號
713,台灣銀行,ChIJazrXKw-rQjQRRcpq7tQDVrY,25.0637972,121.5509241,4.2,10,"['bank', 'finance', 'point_of_interest', 'establishment']",松山區敦化北路340之9號
714,兆豐國際商業銀行,ChIJXd9DqPGrQjQRNgHg-g_a-E0,25.0637916,121.5509857,3.9,8,"['bank', 'finance', 'point_of_interest', 'establishment']",松山區敦化北路340之9號
715,Taiwan Cooperative Bank,ChIJ19oXZuOrQjQRtvv_apxPMeE,25.0621496,121.5422155,3.9,15,"['bank', 'finance', 'point_of_interest', 'establishment']","No. 58號, Section 3, Minquan East Road, Zhongshan District"
716,永豐金證卷復興分公司,ChIJI31NWuOrQjQRR9YwRJEWQdY,25.0625841,121.5422193,-,-,"['bank', 'finance', 'point_of_interest', 'establishment']","號, No. 35, Section 3, Minquan East Road, Zhongshan District"
719,日盛銀行 敦北分行,ChIJSVHCYO-rQjQRqu1UBe1FI2o,25.0579432,121.5497583,4.4,5,"['bank', 'finance', 'point_of_interest', 'establishment']",松山區敦化北路207之2號
732,兆豐銀行 城東分行,ChIJo0FbFu-rQjQR9IYsY6rU2io,25.057648,121.550318,3.5,2,"['bank', 'finance', 'point_of_interest', 'establishment']",松山區民生東路四段131巷no 52
734,華南商業銀行民生分行,ChIJAYMtHO-rQjQRv696CpLzbTU,25.0577294,121.5508668,2.5,18,"['bank', 'finance', 'point_of_interest', 'establishment']",松山區民生東路四段54號
738,Chang Hwa Bank,ChIJnUTLHe-rQjQRDVEdNyCy1_A,25.0577637,121.5512515,2.7,7,"['bank', 'finance', 'point_of_interest', 'establishment']","No. 54之1號, Section 4, Minsheng East Road, Songshan District"
743,Yuanta Commercial Bank,ChIJgeANFu-rQjQR3SNkeSCLOMs,25.057648,121.550318,3.4,10,"['bank', 'finance', 'point_of_interest', 'establishment']","之1號, No. 52, Section 4, Minsheng East Road, Songshan District"
746,永豐銀行-敦北分行,ChIJcUESbO-rQjQROqOYIOr-GKI,25.0580776,121.549562,3.3,12,"['bank', 'finance', 'point_of_interest', 'establishment']","No. 209, DunHua North Road, Songshan District"
747,Mega International Commercial Bank,ChIJOdtwHu-rQjQRtXmRCOSMmXE,25.0576479,121.5503179,3,9,"['bank', 'finance', 'point_of_interest', 'establishment']","No. 52號, Section 4, Minsheng East Road, Songshan District"
748,Shin Kong Commercial Bank,ChIJ8zozP-SrQjQR2q_s1noYxoo,25.0587854,121.5444305,2.8,4,"['bank', 'finance', 'point_of_interest', 'establishment']","No. 311號, Fuxing North Road, Songshan District"
757,永豐商業銀行股份有限公司敦北分公司,ChIJAUUSbO-rQjQRDb1Y7r8U71s,25.0580559,121.5496221,-,-,"['bank', 'finance', 'point_of_interest', 'establishment']","No. 209, DunHua North Road, Songshan District"
772,安泰商業銀行,ChIJn7dTDeKrQjQR_p9LSIBLcGo,25.0605239,121.53755,1,1,"['bank', 'finance', 'point_of_interest', 'establishment']",中山區建國北路二段135號
776,台灣企銀建國分行,ChIJcwCw8-KrQjQRwNxbBZ2d_n0,25.062049,121.538651,1.4,10,"['bank', 'finance', 'point_of_interest', 'establishment']",中山區民權東路三段4號
779,基隆第二信用合作社台北分社,ChIJp2q_2-OrQjQRjnI-gbYglxU,25.0588496,121.5408194,5,2,"['bank', 'finance', 'point_of_interest', 'establishment']",中山區龍江路251號
798,永豐銀行-龍江分行,ChIJMRcyA_2rQjQRUjxmMSnLgck,25.066164,121.5412376,4,25,"['bank', 'finance', 'point_of_interest', 'establishment']",中山區龍江路407號
807,陽信銀行龍江分行,ChIJ_wXCEf2rQjQRxFk1XSRrm6U,25.0661501,121.5388753,5,5,"['bank', 'finance', 'point_of_interest', 'establishment']",中山區龍江路356巷49號
836,兆豐國際商業銀行股份有限公司松山機場分公司,ChIJReZEBfOrQjQRGCQiBrG6BVM,25.0629997,121.5577631,-,-,"['bank', 'finance', 'point_of_interest', 'establishment']",松山區敦化北路405巷123弄3號
839,凱基銀行民生分行,ChIJn9Yotu2rQjQRD8AcHX-7gc0,25.0580718,121.5555743,4.2,5,"['bank', 'finance', 'point_of_interest', 'establishment']",松山區民生東路五段2號
881,第一商業銀行 - 大直分行,ChIJkzIORg6sQjQRjFmTHzhs4Io,25.080687,121.552042,2.4,9,"['bank', 'finance', 'point_of_interest', 'establishment']",中山區明水路588號
882,新光銀行大直分行,ChIJacmbMA6sQjQRlY3tIbmeRtY,25.0814018,121.5518459,3.9,7,"['bank', 'finance', 'point_of_interest', 'establishment']",中山區明水路600號
883,中國信託銀行 大直分行,ChIJwwZJ0xGsQjQRdGuVm3NtWJ0,25.0829525,121.5512746,3.4,20,"['bank', 'finance', 'point_of_interest', 'establishment']",中山區明水路638號
884,華南銀行 大直分行,ChIJb9YR3hGsQjQRm2RjeUt4tMI,25.0824538,121.5526421,3,12,"['bank', 'finance', 'point_of_interest', 'establishment']",中山區樂群三路52號
885,彰化商業銀行 大直分行,ChIJ0VTG9A-sQjQRZAFtwF1rLTY,25.0818119,121.5485916,3.7,10,"['bank', 'finance', 'point_of_interest', 'establishment']",中山區北安路589號
886,高雄銀行,ChIJZZLhxBGsQjQR4rDXawcNWl0,25.0829806,121.5518919,3.8,5,"['bank', 'finance', 'point_of_interest', 'establishment']",中山區敬業一路97號
887,滙豐銀行 大直分行,ChIJa8qHNBCsQjQR08UnXI8yiDM,25.0835451,121.5511729,3.5,4,"['bank', 'finance', 'point_of_interest', 'establishment']",中山區明水路666號
888,聯邦商業銀行 大直分行,ChIJkVOULhCsQjQR_NDtowDbU3o,25.0830017,121.5508405,3.4,12,"['bank', 'finance', 'point_of_interest', 'establishment']",中山區明水路649號
889,台新銀行 - 大直分行,ChIJq7_9DRCsQjQR2geJcoV18wA,25.083943,121.549107,3.5,14,"['bank', 'finance', 'point_of_interest', 'establishment']",中山區北安路645號
890,渣打銀行-大直分行,ChIJBaCMNRCsQjQRASwY8SgOKP8,25.0838543,121.5510101,2.3,10,"['bank', 'finance', 'point_of_interest', 'establishment']",中山區明水路676號
891,板信商業銀行大直分行,ChIJ4TOm4g-sQjQRm6bEDJa1lH0,25.0829303,121.5491763,3.3,6,"['bank', 'finance', 'point_of_interest', 'establishment']",中山區北安路632號
892,板信商業銀行,ChIJgX-dIhCsQjQR9_FPzMLjvQk,25.0833726,121.5498458,-,-,"['bank', 'finance', 'point_of_interest', 'establishment']",Taiwan
893,台北富邦銀行 大直分行,ChIJqd464w-sQjQRPP32zha8_rM,25.0815889,121.5517628,3.1,19,"['bank', 'finance', 'point_of_interest', 'establishment']",中山區明水路602號
894,國泰世華銀行 大直分行,ChIJHyZ07BKsQjQR9xhkacY7jEc,25.0808224,121.5516122,3.4,13,"['bank', 'finance', 'point_of_interest', 'establishment']",中山區明水路589號
895,台新國際商業銀行股份有限公司大直簡易型分公司,ChIJq7_9DRCsQjQRIlp_I1YWe-8,25.083999,121.549103,-,-,"['bank', 'finance', 'point_of_interest', 'establishment']",中山區北安路645號
896,凱基銀行大直分行,ChIJl_2a-hGsQjQRHiemj_UIbtU,25.082524,121.55351,4.5,4,"['bank', 'finance', 'point_of_interest', 'establishment']",中山區樂群三路78號
899,合作金庫銀行 大直分行,ChIJr1tAAQOsQjQRrY6fLEVssSc,25.0828244,121.5401146,3.3,6,"['bank', 'finance', 'point_of_interest', 'establishment']",中山區北安路409號通北街國防部7號門內
917,華泰銀行(總部分行、國外部、信託部),ChIJpQ5AnxKsQjQRq5Z4g3SIVbQ,25.0811085,121.5580052,4,5,"['bank', 'finance', 'point_of_interest', 'establishment']","1樓, No. 33號, 敬業四路, 中山區"
918,華泰商業銀行股份有限公司信用卡中心,ChIJSdhLGtyrQjQRAaXUU1vkXyg,25.0810106,121.5579205,3.6,7,"['bank', 'finance', 'point_of_interest', 'establishment']",中山區敬業四路33號
919,土地銀行大直分行,ChIJ84lUr3KsQjQRNolrexwnv44,25.079963,121.5605298,4.8,12,"['bank', 'finance', 'point_of_interest', 'establishment']",中山區樂群二路289號
921,聯邦商業銀行-西湖分行,ChIJN82jWGysQjQREjR9KRKIc6A,25.0833282,121.5627907,2.8,6,"['bank', 'finance', 'point_of_interest', 'establishment']",內湖區內湖路一段88號
942,國泰世華銀行 內湖分行,ChIJ6XKtAG-sQjQRTeEYJf1pN0M,25.0819219,121.56893,3.2,36,"['bank', 'finance', 'point_of_interest', 'establishment']",內湖區內湖路一段310號
943,台新銀行-內湖分行,ChIJC51tnG-sQjQRY7G5QbXK1eE,25.0813732,121.5706113,3.1,39,"['bank', 'finance', 'point_of_interest', 'establishment']",內湖區內湖路一段358號
944,E.Sun Bank Neihu Branch,ChIJZWvRd2-sQjQRfdfT5w8LkAo,25.080844,121.5703039,2.7,35,"['bank', 'finance', 'point_of_interest', 'establishment']",內湖區內湖路一段360巷8號
945,第一商業銀行-內科園區分行,ChIJi1mBmWWsQjQR60Xe8PlMI64,25.0806849,121.572341,3,15,"['bank', 'finance', 'point_of_interest', 'establishment']",內湖區內湖路一段388號
946,陽信銀行內湖分行,ChIJDcTfjG6sQjQRyFSv4AViYaQ,25.0819828,121.5666721,2.8,6,"['bank', 'finance', 'point_of_interest', 'establishment']",內湖區內湖路一段250號
947,臺灣企銀 內湖分行,ChIJ3a3ZYm-sQjQR0d97Ow9qwUc,25.080865,121.5707018,2.9,10,"['bank', 'finance', 'point_of_interest', 'establishment']",內湖區內湖路一段360巷15號
948,中國信託銀行 西湖分行,ChIJ9SzHg26sQjQRPUQk1QenWsk,25.0819794,121.5661447,3.7,20,"['bank', 'finance', 'point_of_interest', 'establishment']",內湖區內湖路一段244號
949,元大銀行 瑞光分行,ChIJrxEnUG6sQjQRognerdDWVLQ,25.080665,121.5677728,2.6,10,"['bank', 'finance', 'point_of_interest', 'establishment']",內湖區瑞光路583巷21號
950,內湖農會西湖辦事處,ChIJF3Fd2W6sQjQRx8cE4w7Khqg,25.0829131,121.5680747,3,5,"['bank', 'finance', 'point_of_interest', 'establishment']",內湖區內湖路一段323巷5弄1號
951,陽信商業銀行北二企金中心,ChIJf8UBjW6sQjQRf0x5DipQPD8,25.0819775,121.5668052,1,1,"['bank', 'finance', 'point_of_interest', 'establishment']",內湖區內湖路一段252號
952,新光銀行內湖分行,ChIJRV_6e2-sQjQR7GlOldCE-nc,25.0805832,121.5706212,4.1,11,"['bank', 'finance', 'point_of_interest', 'establishment']",內湖區內湖路一段360巷17號
953,台北富邦银行 西湖分行,ChIJjUwXm26sQjQR4O1T_FpGSPc,25.0821549,121.5656575,3.3,22,"['bank', 'atm', 'finance', 'point_of_interest', 'establishment']",內湖區內湖路一段240號
954,瑞興銀行-內湖分行,ChIJ07O5lWWsQjQRFh0wYdzi2J0,25.0811546,121.5726765,5,2,"['bank', 'finance', 'point_of_interest', 'establishment']",內湖區內湖路一段575號
955,日盛銀行（內湖分行）,ChIJYVN4Om6sQjQREJ1OqyOfgTs,25.0820144,121.5660929,3.7,6,"['bank', 'finance', 'point_of_interest', 'establishment']",內湖區內湖路一段246號
956,大眾商業銀行中小企業桃園服務中心,ChIJL-M_UG6sQjQRy00uDuTpLf0,25.080665,121.5677728,-,-,"['bank', 'finance', 'point_of_interest', 'establishment']",臺灣省台北市 內湖區瑞光路583巷21號
959,王道銀行 營業部,ChIJCSrrn3qsQjQRGrvqk6SJC44,25.0766163,121.5712474,4,216,"['bank', 'finance', 'point_of_interest', 'establishment']",內湖區堤頂大道二段99號
960,永豐銀行-西湖分行,ChIJqbMaimWsQjQR3U8vRnQ05KQ,25.078162,121.570286,3.1,18,"['bank', 'finance', 'point_of_interest', 'establishment']",內湖區瑞光路412號
962,花旗銀行內湖分行,ChIJg8hlt2-sQjQR5y9uGT2tbm8,25.0802721,121.5656774,2,53,"['bank', 'finance', 'point_of_interest', 'establishment']",內湖區瑞光路608號1樓
964,臺灣銀行 內湖分行,ChIJhWwApWWsQjQRt85XNYCcfBU,25.080464,121.573218,3.2,44,"['bank', 'finance', 'point_of_interest', 'establishment']",內湖區內湖路一段396號
965,中國信託瑞光分行,ChIJD1D9rmWsQjQROAFb74n_wk8,25.0803146,121.5738189,4.1,19,"['bank', 'finance', 'point_of_interest', 'establishment']",內湖區內湖路一段514號
969,華宇不動產有限公司（愛因斯坦科技中心） 內湖科技園區 內湖廠辦 瑞光路廠辦 內湖辦公室 仲介 房仲 出租 出售 南港軟體園區 汐止 廠房 土地買賣 租賃,ChIJdW4oVmWsQjQRQU2uCZTLjFo,25.0786592,121.5704844,5,21,"['bank', 'finance', 'real_estate_agency', 'point_of_interest', 'establishment']",內湖區瑞光路431號愛因斯坦科技中心1樓
970,華南銀行（西湖分行）,ChIJ2aNlomWsQjQRAdKe1RSJJx0,25.0805711,121.5731537,2.8,23,"['bank', 'finance', 'point_of_interest', 'establishment']",內湖區內湖路一段392號
971,星展銀行消費金融處,ChIJYX4cSGWsQjQRfgwoKlUEMWw,25.0777854,121.5724245,3,6,"['bank', 'finance', 'point_of_interest', 'establishment']",內湖區瑞光路399號
972,聯邦商業銀行 內湖分行,ChIJAQr6SmWsQjQRzHzlDOMy-28,25.0776399,121.57258,3.7,17,"['bank', 'finance', 'point_of_interest', 'establishment']",內湖區瑞光路399號
973,聯邦商業銀行 信用卡暨支付金融處,ChIJodzxSmWsQjQR_6T6xOqcDPc,25.0776286,121.572578,1.7,10,"['bank', 'finance', 'point_of_interest', 'establishment']","號 5 樓, No. 399, 瑞光路, 內湖區"
974,Chailease,ChIJ3WMStHqsQjQRAs23NanyRBo,25.0772499,121.5723666,-,-,"['bank', 'finance', 'point_of_interest', 'establishment']",內湖區瑞光路112巷
976,凱基銀行瑞光分行,ChIJSzSn3m2sQjQRHENrBLzhMgU,25.0804571,121.5652698,5,1,"['bank', 'finance', 'point_of_interest', 'establishment']",內湖區瑞光路618號
977,The Shanghai Commercial & Savings Bank,ChIJTRxi-nGsQjQR5RKfFk6VPEc,25.0785124,121.5659293,4.2,26,"['bank', 'finance', 'point_of_interest', 'establishment']","No. 259號, Section 2, Tiding Boulevard, Neihu District"
978,彰化商業银行西內湖分行,ChIJQaDvv2-sQjQRwG2lVOj-XjY,25.0798375,121.5697706,2.8,19,"['bank', 'finance', 'point_of_interest', 'establishment']","1樓, No. 26號, Lane 513, Ruiguang Road, Neihu District"
979,Mega International Commercial Bank,ChIJ_3yR52-sQjQRzWBw352ThfU,25.0784978,121.5696216,2.8,24,"['bank', 'finance', 'point_of_interest', 'establishment']","No. 472號, Ruiguang Road, Neihu District"
980,King's Town Bank,ChIJ1brs_26sQjQRufDJOc1Lnqc,25.0779462,121.5710141,4.2,10,"['bank', 'finance', 'point_of_interest', 'establishment']","No. 394號, Ruiguang Road, Neihu District"
982,Taiwan Cooperative Bank,ChIJh5THLm6sQjQR_7wCfPr9rc4,25.0793198,121.5680917,2.8,9,"['bank', 'finance', 'point_of_interest', 'establishment']","號, No. 502, Ruiguang Road, Neihu District"
985,板信商業銀行瑞光分行,ChIJ64qGbW6sQjQRxow-EaxvRYA,25.0805075,121.5663925,5,1,"['bank', 'finance', 'point_of_interest', 'establishment']","No. 633, Ruiguang Road, Neihu District"
988,王道銀行音樂廳,ChIJ6QeACnCsQjQRVd3oOaKRX80,25.0766163,121.5712474,4.3,6,"['bank', 'finance', 'point_of_interest', 'establishment']","No. 99, Section 2, Tiding Boulevard, Neihu District"
989,上海商銀 SCSB 資訊中心,ChIJ0d04-nGsQjQRzsFIh48BplE,25.0784647,121.5659787,-,-,"['bank', 'finance', 'point_of_interest', 'establishment']","No. 259, Section 2, Tiding Boulevard, Neihu District"
990,HSBC Neihu Branch,ChIJ_____26sQjQRqNNk6cCdgZw,25.0804451,121.5657011,3.3,12,"['bank', 'finance', 'point_of_interest', 'establishment']","1樓, No. 612號, Ruiguang Road, Neihu District"
1037,永豐銀行-內湖分行,ChIJpaN90HqsQjQR3ejRljidVrI,25.0792121,121.5778734,2.5,21,"['bank', 'finance', 'point_of_interest', 'establishment']",內湖區內湖路一段721號
1041,華泰銀行 內湖分行,ChIJo7FrmWOsQjQRZ3y16_jwlII,25.0791443,121.5780421,3.7,6,"['bank', 'finance', 'point_of_interest', 'establishment']",內湖區內湖路一段729號
1042,永豐銀行ATM,ChIJ5_eACnCsQjQRQ6MYmhOuBNY,25.0792358,121.5779181,4.5,2,"['atm', 'bank', 'finance', 'point_of_interest', 'establishment']",內湖區內湖路一段721、723、725號
1043,星展銀行 內湖分行,ChIJKYPOKHusQjQRJ36DWoaP6NM,25.0764342,121.5744494,2.9,15,"['bank', 'finance', 'point_of_interest', 'establishment']",內湖區瑞光路300號
1045,合作金庫銀行西湖,ChIJ0QcUZ3usQjQRrcLkZurcmz4,25.0750781,121.5763519,2.9,17,"['bank', 'finance', 'point_of_interest', 'establishment']",內湖區瑞光路206號
1046,台灣土地銀行西湖分行,ChIJ94YEI3usQjQR5N_KiiKIRDA,25.0759101,121.5750531,2.5,17,"['bank', 'finance', 'point_of_interest', 'establishment']",內湖區港墘路185號
1048,玉山銀行 瑞光分行,ChIJK0j5b3usQjQRZDJ0IUWo-k4,25.0756808,121.5756056,3.3,19,"['bank', 'finance', 'point_of_interest', 'establishment']",內湖區瑞光路266號
1049,元大銀行 內湖分行,ChIJ9Za94G2sQjQRr9lHsygtNU8,25.075672,121.5748567,3.8,6,"['bank', 'finance', 'point_of_interest', 'establishment']",內湖區港墘路189號
1050,彰化商業銀行(內湖分行),ChIJT15S1omsQjQRZoRw3rzPABA,25.0746914,121.5763568,4,4,"['bank', 'finance', 'point_of_interest', 'establishment']",內湖區瑞湖街19號
1051,元大銀行 文德分行,ChIJ3-nAYGKsQjQRkYWDP_bDcqY,25.078303,121.5813938,3,7,"['bank', 'finance', 'point_of_interest', 'establishment']",內湖區文德路68號
1052,台中銀行,ChIJQX8pKHusQjQR653C_cPHCmU,25.0766017,121.5740123,2.5,2,"['bank', 'finance', 'point_of_interest', 'establishment']",內湖區瑞光路306號
1053,三信商業銀行,ChIJ7z9GinysQjQR6wGM3XdlcUM,25.0735498,121.5778802,-,-,"['bank', 'finance', 'point_of_interest', 'establishment']",內湖區陽光街246號
1054,台北富邦銀行 瑞湖分行,ChIJ6RWhmHusQjQRygiGpnyV0VM,25.0738066,121.575685,3.8,33,"['bank', 'finance', 'point_of_interest', 'establishment']",內湖區瑞湖街62號
1055,台北富邦銀行 文德分行,ChIJL2fYV2KsQjQRpbgfq3JK1sY,25.0782937,121.5804708,4.3,20,"['bank', 'atm', 'finance', 'point_of_interest', 'establishment']",內湖區文德路42號
1056,兆豐銀行 東內湖分行,ChIJMeSiIXusQjQRnsVqGM9w8Zo,25.0759482,121.5741756,4,12,"['bank', 'finance', 'point_of_interest', 'establishment']",內湖區港墘路202號
1059,台北富邦商業銀行股份有限公司文德分行支票存款,ChIJL2fYV2KsQjQRLsnI_sWRxWU,25.0782408,121.5804029,-,-,"['bank', 'finance', 'point_of_interest', 'establishment']",內湖區文德路42號
1060,西班牙商西班牙對外銀行股份有限公司台北分公司,ChIJpaN90HqsQjQR-IE299HcX_I,25.0765969,121.5735621,-,-,"['bank', 'finance', 'point_of_interest', 'establishment']",內湖區瑞光路318號
1061,上海銀行 西湖分行,ChIJ7UOggXusQjQRfOeb1GzuvP0,25.07368,121.5766969,4,7,"['bank', 'finance', 'point_of_interest', 'establishment']",內湖區瑞光路188巷48號
1062,三信商業銀行股份有限公司國外部,ChIJMxZ4YnysQjQRmut2ajrFfPg,25.073553,121.57789,-,-,"['bank', 'finance', 'point_of_interest', 'establishment']",內湖區陽光街246號
1063,新加坡商星展銀行股份有限公司台北分公司,ChIJWTf8fHysQjQRDca_NtOacLA,25.0734669,121.577519,-,-,"['bank', 'finance', 'point_of_interest', 'establishment']","No. 250, Yangguang Street, Neihu District"
1112,台北富邦銀行內湖分行,ChIJbdBuV4ysQjQRBVKFUgU9Yfg,25.0809204,121.5905662,4.1,18,"['bank', 'atm', 'finance', 'point_of_interest', 'establishment']",內湖區成功路三段174巷6號
1113,國泰世華銀行文德分行,ChIJvfptWIysQjQR7Tewpz1-RMw,25.0811869,121.5903814,3.4,12,"['bank', 'atm', 'finance', 'point_of_interest', 'establishment']",內湖區成功路三段174巷12號
1114,第一商業銀行-內湖分行,ChIJA1MGT4ysQjQRjYnarVlh_z8,25.07958,121.5900079,2.3,11,"['bank', 'finance', 'point_of_interest', 'establishment']",內湖區成功路三段145號
1115,康和綜合證券股份有限公司(內湖分公司),ChIJZWUv14msQjQR8VDFIdVjAOw,25.0810983,121.5905104,2,2,"['bank', 'finance', 'point_of_interest', 'establishment']","2, No. 8號, 成功路三段174巷, 內湖區"
1116,安泰商業銀行,ChIJZeF4V4ysQjQRX_2hie_H8vY,25.081002,121.59054,3.8,4,"['bank', 'finance', 'point_of_interest', 'establishment']",內湖區成功路三段174巷8號
1131,瑞興銀行 成功簡易型分行,ChIJ03VQFO2sQjQRPrRW1qt8RyE,25.084128,121.5956826,3,2,"['bank', 'finance', 'point_of_interest', 'establishment']",內湖區成功路四段197號
1132,上海商業儲蓄銀行 內湖分行,ChIJW090TY2sQjQRS3QTNyCD3f0,25.0829861,121.5932051,5,3,"['bank', 'finance', 'point_of_interest', 'establishment']",內湖區成功路四段166號
1133,板信商業銀行,ChIJG563-oysQjQRQOh1vbCePBI,25.0834259,121.594429,4,3,"['bank', 'finance', 'point_of_interest', 'establishment']",內湖區成功路四段163號
1134,中國信託銀行 成功分行,ChIJB7iNVu2sQjQRz9_9MKRcGm4,25.083389,121.594291,2.8,29,"['bank', 'finance', 'point_of_interest', 'establishment']",內湖區成功路四段161號1F
1135,華南銀行 內湖分行,ChIJayWEVe2sQjQR56Ail4bzKS0,25.0832262,121.594109,3.2,12,"['bank', 'finance', 'point_of_interest', 'establishment']",內湖區成功路四段157號
1137,玉山銀行 成功分行,ChIJfR9vP42sQjQRloCD5vW7hG0,25.0826373,121.5932813,2.5,8,"['bank', 'finance', 'point_of_interest', 'establishment']",內湖區成功路四段99號
1140,陽信銀行成功分行,ChIJNzlETI2sQjQRL860MjXBRmI,25.0828668,121.5930611,3,1,"['bank', 'finance', 'point_of_interest', 'establishment']",內湖區成功路四段70號
1143,兆豐銀行 內湖分行,ChIJ6SBBSY2sQjQRnGnrxi-SPS4,25.0828594,121.5929355,3.8,14,"['bank', 'finance', 'point_of_interest', 'establishment']",內湖區成功路四段68號
1172,台新銀行(東湖分行),ChIJAeO_4L2sQjQROMHTpl-v2BU,25.07443,121.60683,3.1,13,"['bank', 'finance', 'point_of_interest', 'establishment']",內湖區成功路五段452之1號
1173,中國信託東湖簡易分行,ChIJbU167r2sQjQRDE3S8qXw3TE,25.0735555,121.6063366,4.6,280,"['bank', 'finance', 'point_of_interest', 'establishment']",內湖區成功路五段460號1樓
1174,臺灣銀行東湖分行,ChIJb09f5r2sQjQRKz4jWv6foXQ,25.0741999,121.6066802,2.9,14,"['bank', 'finance', 'point_of_interest', 'establishment']",內湖區成功路五段458號
1175,國泰世華銀行 東湖分行,ChIJadF54L2sQjQRJxc9lgq9EIg,25.0745242,121.6069174,2.3,24,"['bank', 'finance', 'point_of_interest', 'establishment']",內湖區成功路五段452號
1176,華南銀行 東湖分行,ChIJDbHAz7CsQjQRkpocaeI3SIY,25.0743967,121.6067993,3.1,13,"['bank', 'finance', 'point_of_interest', 'establishment']",內湖區成功路五段456號
1177,台北富邦銀行 東湖分行,ChIJXwsVXbusQjQRB-z_q1BsLe4,25.0722043,121.6086105,2.7,28,"['bank', 'finance', 'point_of_interest', 'establishment']",內湖區康寧路三段69號
1178,合作金庫銀行 大湖分行,ChIJs4_1j72sQjQRC4uMTYJkmrY,25.0729348,121.6062773,2.8,12,"['bank', 'finance', 'point_of_interest', 'establishment']",內湖區民權東路六段314號
1179,新光銀行新金湖分行,ChIJTxjB52ytQjQRqJa3qSzELs4,25.073339,121.6064188,5,1,"['bank', 'finance', 'point_of_interest', 'establishment']",內湖區成功路五段462號
1180,永豐銀行-東湖分行,ChIJ9XWrjLqsQjQRwN7o3a5zsJ0,25.0689877,121.6130951,3.4,13,"['bank', 'finance', 'point_of_interest', 'establishment']",內湖區東湖路23號
1185,第一商業銀行-東湖分行,ChIJrX9vKJasQjQRE96QptWZQcY,25.072792,121.605058,1.6,18,"['bank', 'finance', 'point_of_interest', 'establishment']",內湖區民權東路六段483號
1188,玉山銀行 東湖分行,ChIJhdgdPJasQjQRULhYjFlHD8g,25.0732819,121.6049838,3.4,19,"['bank', 'finance', 'point_of_interest', 'establishment']",內湖區金湖路421號
1190,遠東銀行（金湖分行）,ChIJRywVKZasQjQRNBr3fs8ci0o,25.0732114,121.6049969,4,2,"['bank', 'finance', 'point_of_interest', 'establishment']",內湖區民權東路六段495號
1191,第一商業銀行股份有限公司東湖簡易型分行,ChIJsRGhLpasQjQRXncs1ZsT-Qk,25.0727742,121.6050517,-,-,"['bank', 'finance', 'point_of_interest', 'establishment']",內湖區民權東路六段483號
1215,板信商業銀行 東湖分行,ChIJ_x7z3bqsQjQRliNTIVN4k7E,25.0688564,121.6145254,3.3,6,"['bank', 'finance', 'point_of_interest', 'establishment']",內湖區東湖路55號
1217,渣打銀行 內湖分行,ChIJ275bwrqsQjQRe1V222ti6Fg,25.0686899,121.6149139,3.3,21,"['bank', 'finance', 'point_of_interest', 'establishment']",內湖區東湖路69號
1218,內湖區農會東湖分部,ChIJ-xztCbCsQjQRKFdnAWhrEAM,25.067923,121.616982,4.3,3,"['bank', 'finance', 'point_of_interest', 'establishment']",內湖區東湖路144號
1219,安泰商業銀行,ChIJB-UlE7CsQjQR92CluCs4y1o,25.0681189,121.6177859,4.7,70,"['bank', 'finance', 'point_of_interest', 'establishment']",內湖區康樂街12號
1224,日商瑞穗銀行股份有限公司台北分公司,ChIJLUyNXJ-sQjQR-zApjvkINq0,25.0634527,121.6049134,-,-,"['bank', 'finance', 'point_of_interest', 'establishment']",內湖區安康路268號
1234,中國信託營業部分行,ChIJByS11qesQjQR23dwDERiqdA,25.0587254,121.6164516,3,51,"['bank', 'finance', 'point_of_interest', 'establishment']",南港區經貿二路168號
1235,中國信托南港總公司,ChIJp7unY76tQjQR3Xwerjiyv84,25.0591684,121.6155071,2,8,"['bank', 'finance', 'point_of_interest', 'establishment']",南港區經貿二路168號
1236,中國信託南港總行,ChIJN_hyt6esQjQR6AdUcqM10ss,25.0588446,121.6152597,2.5,26,"['bank', 'finance', 'point_of_interest', 'establishment']","一樓, 中信園區 A棟, No. 188號, 經貿二路, 南港區"
1237,臺灣銀行 南軟分行,ChIJ8zfJg6esQjQRJLsJX63kL3k,25.0572389,121.6142947,3,34,"['bank', 'finance', 'point_of_interest', 'establishment']",南港區三重路66號二樓
1238,台北富邦銀行 南港分行,ChIJEwB3caesQjQRWZMrYg5ShAk,25.0570923,121.6136018,3.7,27,"['bank', 'atm', 'finance', 'point_of_interest', 'establishment']",南港區三重路19之5號
1239,臺灣企銀,ChIJ4czij1irQjQROo7rQvjPZzI,25.0566083,121.6136032,2.6,5,"['bank', 'atm', 'finance', 'point_of_interest', 'establishment']",南港區三重路19之2號
1240,國泰世華銀行 南港分行,ChIJ9Qsn2F6rQjQR3Iqog685Vso,25.0575612,121.6149935,3.4,53,"['bank', 'finance', 'point_of_interest', 'establishment']",南港區三重路66-3號
1242,玉山銀行 南港分行,ChIJ9c5ihqesQjQRxvKW_pSez6E,25.0572295,121.6145897,3,15,"['bank', 'finance', 'point_of_interest', 'establishment']",南港區三重路66之1號
1243,台新銀行(南港分行),ChIJYS4BhaesQjQR_4kUKrt8WG0,25.0585925,121.61376,3.7,26,"['bank', 'finance', 'point_of_interest', 'establishment']",南港區三重路19-12號
1245,國泰世華商業銀行股份有限公司南港分行,ChIJpeWN116rQjQR9tUMhLGPTGc,25.0575293,121.6148987,-,-,"['bank', 'finance', 'point_of_interest', 'establishment']",南港區經貿二路88巷66號
1247,凱基銀行南港資訊中心,ChIJm4C-i1irQjQRUL_fTWgC0N8,25.056573,121.6133703,-,-,"['bank', 'finance', 'point_of_interest', 'establishment']",南港區三重路19號115台北市南港區三重路19號d棟
1248,永豐銀行-南港分行,ChIJ9889H3GrQjQRBRCObsnmbt4,25.058711,121.6132229,3.1,9,"['bank', 'finance', 'point_of_interest', 'establishment']",南港區三重路19-15號
1249,合作金庫銀行 南港分行,ChIJLd4SdaesQjQR-B3NNCfWDjI,25.0585532,121.6129283,3.1,9,"['bank', 'finance', 'point_of_interest', 'establishment']",南港區三重路19之16號
1254,第一銀行南港分行,ChIJ70pKrlirQjQRroxuRB046Gg,25.0569553,121.6119093,2.4,20,"['bank', 'finance', 'point_of_interest', 'establishment']",南港區園區街3號2樓之8
1255,彰化商業銀行,ChIJvaZGP6esQjQRogSGoGokbP4,25.0584861,121.6118825,4.2,6,"['bank', 'finance', 'point_of_interest', 'establishment']",南港區園區街3號2樓之3
1257,元大銀行 南港分行,ChIJI4eUyaCsQjQRMaPv3016v2s,25.0592072,121.6125793,3,9,"['bank', 'finance', 'point_of_interest', 'establishment']",南港區園區街28號
1260,南港區農會,ChIJbzrH5VirQjQRCiUU-dvDoV4,25.055154,121.6129909,3.8,24,"['bank', 'finance', 'point_of_interest', 'establishment']",南港區南港路一段173號
1261,華南銀行 北南港分行,ChIJXalGP6esQjQRGw6KHM3tzcc,25.0565986,121.6121627,3.7,18,"['bank', 'finance', 'point_of_interest', 'establishment']",南港區園區街3號2樓
1262,東元電機 南軟,ChIJrTmIOKesQjQR-FfjJVe6huo,25.0574254,121.6120483,-,-,"['bank', 'finance', 'point_of_interest', 'establishment']","號, No. 3-1, 園區街, 南港區"
1266,花旗銀行南港分行,ChIJhel5TLKrQjQRntFeNefX9KA,25.0559336,121.6122543,2.6,16,"['bank', 'finance', 'point_of_interest', 'establishment']",南港區興東街29-3號
1318,渣打銀行 信義分行,ChIJ_1dgl7qrQjQRLnEKiYk2w5o,25.036421,121.569564,2.4,30,"['bank', 'finance', 'point_of_interest', 'establishment']",信義區松仁路97號2樓
1319,星展銀行松仁分行,ChIJAQ2wi7qrQjQRVwwvC5mMxCk,25.037165,121.5687473,3,24,"['bank', 'finance', 'point_of_interest', 'establishment']",信義區松仁路89號
1320,華南金控總行,ChIJ2VRPXrCrQjQRxL8BZR0rIbM,25.0342818,121.5691682,4.2,111,"['bank', 'finance', 'point_of_interest', 'establishment']",信義區松仁路123號
1321,台灣土地銀行東台北分行,ChIJP5sLOaSrQjQRqlsMCccvEB4,25.03778,121.575785,4.2,9,"['bank', 'finance', 'point_of_interest', 'establishment']",信義區松德路107號
1322,中國銀行 臺北分行,ChIJOZSvfrCrQjQROxn8rzMKljA,25.0355308,121.5693691,3.1,63,"['bank', 'finance', 'point_of_interest', 'establishment']",信義區松仁路105號
1323,上海銀行 世貿分行,ChIJM2OsoqWrQjQR10dVCDj_-Ok,25.0358617,121.574814,3.5,13,"['bank', 'finance', 'point_of_interest', 'establishment']",信義區松德路171之6號
1324,瑞興銀行 信義簡易型分行,ChIJR-T0NyWrQjQRncq8ioHmGFg,25.034739,121.575912,4,1,"['bank', 'finance', 'point_of_interest', 'establishment']",信義區信義路六段31號
1325,滙豐銀行 台北分行,ChIJ-daaDLarQjQR3j81sJXl7g8,25.0367724,121.5691327,2.3,36,"['bank', 'finance', 'point_of_interest', 'establishment']",信義區松仁路93號
1326,中國信託ATM,ChIJiWanq7OrQjQRXrNFJS2E0V0,25.0283316,121.5682158,3,2,"['bank', 'finance', 'point_of_interest', 'establishment']",信義區松仁路162號號
1327,中國建設銀行股份有限公司臺北分公司,ChIJ3Z-3E7GrQjQR6hMgmBGkuD0,25.0325029,121.567465,3.2,48,"['bank', 'finance', 'point_of_interest', 'establishment']",信義區信義路五段108號
1328,摩根大通證券股份有限公司,ChIJ_-2BFLGrQjQRva2oM40yvTg,25.0324459,121.567321,-,-,"['bank', 'finance', 'point_of_interest', 'establishment']",信義區信義路五段106號3樓
1330,安泰商業銀行股份有限公司,ChIJraeA2rarQjQRyrcE3KQeN-M,25.0337181,121.5648093,-,-,"['bank', 'finance', 'point_of_interest', 'establishment']",信義區信義路五段7號
1331,玉山銀行 信義分行,ChIJ7fQVacqrQjQRybmBbJRF7QE,25.0326118,121.5659298,3.6,78,"['bank', 'finance', 'point_of_interest', 'establishment']",信義區信義路五段100之2號
1333,國泰世華銀行 松勤分行,ChIJO-AZHParQjQRi1_fcdqkpaI,25.0322491,121.5668292,5,4,"['bank', 'finance', 'point_of_interest', 'establishment']",信義區信義路五段106號信義運動中心對面
1334,大陸商中國建設銀行股份有限公司台北代表人辦事處,ChIJg_KBFLGrQjQR_e4WNaAIxcQ,25.0325804,121.567193,-,-,"['bank', 'finance', 'point_of_interest', 'establishment']",信義區信義路五段106號
1335,鼎麗珠寶銀樓,ChIJd3D2ahaoQjQRUYkvm-kAouQ,25.027168,121.567131,4.4,11,"['jewelry_store', 'bank', 'finance', 'home_goods_store', 'point_of_interest', 'clothing_store', 'store', 'establishment']",信義區莊敬路441號
1336,交通銀行台北代表處,ChIJSbZlxrarQjQRtQF20tQ-n-I,25.0335429,121.5646183,2,7,"['bank', 'finance', 'point_of_interest', 'establishment']",信義區信義路五段7號29樓
1337,渣打銀行101分行,ChIJka1dWWepQjQRuXpjtnH6NMo,25.0333795,121.5645693,2.3,10,"['bank', 'finance', 'point_of_interest', 'establishment']",信義區信義路五段7號35號樓(需換證
1338,花旗銀行 營業部,ChIJzeoLKbqrQjQRFhkcF4JJmHU,25.0389059,121.5660903,1.8,121,"['bank', 'finance', 'point_of_interest', 'establishment']",信義區松智路1號
1339,瑞銀台灣,ChIJmRQTAburQjQRThMeqBJnHQY,25.0382555,121.5691563,3,8,"['bank', 'finance', 'point_of_interest', 'establishment']",信義區松仁路7號5樓
1342,日商三井住友銀行,ChIJ84SjKbqrQjQRI4FafI-PbcU,25.0386466,121.5661442,5,3,"['bank', 'finance', 'point_of_interest', 'establishment']","3樓, No. 1號, 松智路, 信義區"
1345,臺北富邦銀行 臺北101分行,ChIJSTLZ6barQjQRS7cYA3xbNYk,25.0340493,121.5649347,3.8,18,"['bank', 'finance', 'point_of_interest', 'establishment']",信義區市府路45號1樓
1346,台新銀行ATM,ChIJL5izGryrQjQR1yZj3NuWM_s,25.0372268,121.5672887,4.1,9,"['atm', 'bank', 'finance', 'point_of_interest', 'establishment']",信義區松壽路11號
1348,國泰世華銀行 營業部,ChIJkVoC2TCrQjQRfNHJTf-GHbI,25.0382555,121.5691563,2.9,46,"['bank', 'finance', 'point_of_interest', 'establishment']",信義區松仁路7號
1350,台北富邦銀行 市府分行,ChIJrwvZMbirQjQRDSvICdklxMw,25.037531,121.5639969,4.2,16,"['bank', 'atm', 'finance', 'point_of_interest', 'establishment']",信義區市府路1號
1351,UBP Asset Management Taiwan Ltd.,ChIJ4fuCwsCrQjQRnix1e3uj4t8,25.0386198,121.5661667,5,2,"['bank', 'finance', 'point_of_interest', 'establishment']","E, 10, N°1 Songzhi Road Unit, 信義區"
1352,瀚亞投信,ChIJjWe5L7qrQjQREYxcUxuzh0s,25.0386505,121.5661468,4,6,"['bank', 'finance', 'point_of_interest', 'establishment']",信義區松智路1號華新麗華花旗銀行大樓
1356,華納威秀 CASHBANK,ChIJbY-pzaqrQjQRxc9gH4_XPag,25.0357277,121.5673413,3.6,15,"['bank', 'finance', 'point_of_interest', 'establishment']",信義區西村里
1360,台北富邦銀行,ChIJc2S52LarQjQRQql2WbljLrA,25.0342179,121.5645317,-,-,"['bank', 'finance', 'point_of_interest', 'establishment']",Taiwan
1361,安泰銀行台北101分行,ChIJ____27arQjQRS7BX9GirYzk,25.0339639,121.5644722,2.3,3,"['bank', 'finance', 'point_of_interest', 'establishment']","41 樓, No. 7, Section 5, Xinyi Road, Xinyi District"
1363,新光銀行信託部,ChIJxU50akKrQjQRYUAiDTQqDEY,25.0387163,121.5682107,-,-,"['bank', 'finance', 'point_of_interest', 'establishment']","樓之1, No. 32號4, Songren Road, Xinyi District"
1364,美商華美銀行股份有限公司,ChIJbSxlJrqrQjQR5iH568BV3ac,25.0384776,121.5658535,1,1,"['bank', 'finance', 'point_of_interest', 'establishment']","No. 1, Songzhi Road, Xinyi District"
1365,新光銀行營業部,ChIJI4rhVLqrQjQRErUBi2JR3xo,25.038832,121.567819,3.1,11,"['bank', 'finance', 'point_of_interest', 'establishment']","No. 36, Songren Road, Xinyi District"
1366,DBS Bank Xinyi Branch (DBS Treasures Private Client Center),ChIJdWjQSVarQjQR0MLa2pqsEQc,25.0388204,121.5681347,1,3,"['bank', 'finance', 'point_of_interest', 'establishment']","No. 32號, Songren Road, Xinyi District"
1367,台新銀行ATM,ChIJ7RVlNLqrQjQRNzXGuaEjGK0,25.0387489,121.5666702,2.8,6,"['atm', 'bank', 'finance', 'point_of_interest', 'establishment']","No. 12, Songgao Road, Xinyi District"
1368,花旗環球證券股份有限公司,ChIJ84SjKbqrQjQRMhLWkf55Pug,25.0386466,121.5661442,-,-,"['bank', 'finance', 'point_of_interest', 'establishment']","13樓, No. 1號, Songzhi Road, Xinyi District"
1369,台北富邦銀行 公庫部,ChIJzzik3bmrQjQRzEKF6nUjzUw,25.037531,121.5639969,-,-,"['bank', 'finance', 'point_of_interest', 'establishment']","B1, No. 1, City Hall Road, Xinyi District"
1412,永豐銀行（三興分行）,ChIJe2eV47SrQjQR22qJd-Zt2dU,25.028442,121.562958,3.3,15,"['bank', 'finance', 'point_of_interest', 'establishment']",信義區莊敬路296號
1415,板信商業銀行 松山分行,ChIJCfWGvbWrQjQR0dyAz7TqYtU,25.0305377,121.5613467,2.9,7,"['bank', 'finance', 'point_of_interest', 'establishment']",信義區莊敬路196號
1418,台北富邦銀行 莊敬分行,ChIJp9rH4rSrQjQRqr9eXKTooao,25.0286819,121.5627865,3.1,22,"['bank', 'atm', 'finance', 'point_of_interest', 'establishment']",信義區莊敬路286號
1424,台北富邦商業銀行股份有限公司莊敬分行,ChIJjUe24rSrQjQR3N84F7zVhV0,25.0287009,121.5627726,-,-,"['bank', 'finance', 'point_of_interest', 'establishment']",信義區莊敬路284號
1427,國泰世華銀行 世貿分行,ChIJmakjH8qrQjQRMcY_2R3OJeo,25.0328889,121.55815,2.7,23,"['bank', 'finance', 'point_of_interest', 'establishment']",信義區信義路四段456號
1428,遠東銀行（台北信義分行）,ChIJ67yQN8qrQjQR-kOto70QS9k,25.0320519,121.5576409,4.4,5,"['bank', 'finance', 'point_of_interest', 'establishment']",信義區光復南路505號
1429,兆豐銀行 信義分行,ChIJz0qtYMqrQjQRoiEafeoEgzU,25.030742,121.5584469,2.9,21,"['bank', 'finance', 'point_of_interest', 'establishment']",信義區基隆路二段65號
1430,第一商業銀行,ChIJQTMEkbarQjQRiVRGtLmxUlQ,25.0318156,121.5590302,1.8,16,"['bank', 'finance', 'point_of_interest', 'establishment']",信義區基隆路二段21號
1432,台新銀行 基隆路分行,ChIJLakIZ8qrQjQRFQZJylg82wc,25.0308669,121.5585399,2.4,30,"['bank', 'finance', 'point_of_interest', 'establishment']",信義區基隆路二段55號
1434,彰化商業銀行 台北世貿中心分行,ChIJZ8lqOrarQjQRIR1Wa46RoF8,25.0342392,121.5610139,3.4,5,"['bank', 'finance', 'point_of_interest', 'establishment']",信義區基隆路一段333號3樓
1436,花旗銀行信義分行,ChIJodQVHcqrQjQRWo1DR3RG22Q,25.0328615,121.5590412,1.5,37,"['bank', 'finance', 'point_of_interest', 'establishment']",信義區信義路四段460號
1437,臺灣中小企業銀行世貿分行,ChIJIW-4T8qrQjQRtbOQe1M0Rbo,25.031695,121.5576495,2.2,6,"['bank', 'finance', 'point_of_interest', 'establishment']",信義區光復南路547號
1439,永豐商業銀行ATM,ChIJHWGazrSrQjQRUy1szfnEAQE,25.0267605,121.5634276,-,-,"['atm', 'bank', 'finance', 'point_of_interest', 'establishment']",信義區吳興街252號
1440,玉山銀行 基隆路分行,ChIJ7fQVacqrQjQRNpPxOXBUOpg,25.0311131,121.5586652,2.3,56,"['bank', 'finance', 'point_of_interest', 'establishment']",信義區基隆路二段41號
1441,臺灣銀行 臺北世貿中心分行,ChIJ6w_NO7arQjQRTtyk1OFZXIw,25.0344173,121.5608141,3.4,24,"['bank', 'finance', 'point_of_interest', 'establishment']",信義區基隆路一段3F號No. 333號
1442,華南銀行 世貿分行,ChIJuSKJHsqrQjQR0Vq8prPurLM,25.0328823,121.5585462,2.1,25,"['bank', 'finance', 'point_of_interest', 'establishment']",信義區信義路四段458號
1444,合作金庫銀行 三興分行,ChIJeUye9sqrQjQRWVfe9mPLRU8,25.0302668,121.5580833,2,28,"['bank', 'finance', 'point_of_interest', 'establishment']",信義區基隆路二段77號
1445,彰化商業銀行,ChIJy-qHObarQjQRUDQQR-vympo,25.0305707,121.5579268,3.5,10,"['bank', 'finance', 'point_of_interest', 'establishment']",信義區基隆路二段78號
1446,新光銀行世貿分行,ChIJu3yoDLarQjQRY52ZvZdF0Go,25.0328039,121.5608067,3,10,"['bank', 'finance', 'point_of_interest', 'establishment']",信義區信義路五段8號
1448,玉山,ChIJPxqyZ8qrQjQRJ_LmmZrNf5k,25.0309248,121.558566,-,-,"['bank', 'finance', 'point_of_interest', 'establishment']","No. 51, Section 2, Keelung Road, Da’an District"
1449,大統領經貿廣場,ChIJx5CwZ8qrQjQRlsnhdtAF9Zg,25.0309403,121.5585445,5,2,"['bank', 'finance', 'point_of_interest', 'establishment']","No. 51, Section 2, Keelung Road, Da’an District"
1450,行內_基隆路分行,ChIJlzWmZ8qrQjQRYZ2eti54iZs,25.030898,121.5585361,-,-,"['bank', 'finance', 'point_of_interest', 'establishment']","號, No. 55, 基隆路二段, 信義區"
1451,台新銀行電話行銷中心,ChIJi6DV_8mrQjQR1e703M3w0G4,25.0327837,121.5598245,1,1,"['bank', 'finance', 'point_of_interest', 'establishment']","7樓, No. 2號, Section 5, Xinyi Road, Xinyi District"
1452,Land Bank of Taiwan Xinyi Branch,ChIJPRWG48mrQjQRWnRU0NTF5Ro,25.0336486,121.5595312,2.7,13,"['bank', 'finance', 'point_of_interest', 'establishment']","No. 436號, Section 1, Keelung Road, Xinyi District"
1453,國泰世華銀行 文昌分行,ChIJbdTFBwSrQjQR9hgogA8vls0,25.0312335,121.5575852,3,5,"['bank', 'finance', 'point_of_interest', 'establishment']","No. 557號, Guangfu South Road, Xinyi District"
1454,Taiwan Cooperative Bank,ChIJy-qHObarQjQRcXvf_YKAKLg,25.0343842,121.5608779,2.6,20,"['bank', 'atm', 'finance', 'point_of_interest', 'establishment']","2樓, No. 333號, Section 1, Keelung Road, Xinyi District"
1455,CUB,ChIJ9dWFH8qrQjQRqpDo0pBXmuI,25.0328804,121.5581819,-,-,"['bank', 'finance', 'point_of_interest', 'establishment']","No. 456, Section 4, Xinyi Road, Xinyi District"
1457,Mega International Commercial Bank,ChIJZ8lqOrarQjQRotykJjbpw7c,25.0343842,121.5608779,3.3,10,"['bank', 'finance', 'point_of_interest', 'establishment']","No. 333號, Section 1, Keelung Road, Xinyi District"
1458,交通銀行世貿分行,ChIJZ8lqOrarQjQRODgdMTUiyqU,25.0344173,121.5608141,-,-,"['bank', 'finance', 'point_of_interest', 'establishment']","No. 333, Section 1, Keelung Road, Xinyi District"
1459,新加坡商華聯銀行,ChIJ6w_NO7arQjQRg6RGdgGdEi8,25.0344173,121.5608141,-,-,"['bank', 'finance', 'point_of_interest', 'establishment']",Xinyi District
1462,Hwatai Bank,ChIJj_b1hcmrQjQRIfb6hRyFQ6g,25.0335938,121.5576374,3.8,6,"['bank', 'finance', 'point_of_interest', 'establishment']","No. 475號, Guangfu South Road, Xinyi District"
1474,華南銀行 大安分行,ChIJtcGpqMmrQjQR3at1qiE8VD8,25.0353239,121.557309,3.6,18,"['bank', 'finance', 'point_of_interest', 'establishment']",大安區光復南路458號
1521,台北富邦銀行 信義分行,ChIJGQQZ58urQjQRypcj1PSvwbo,25.0333539,121.5553405,2.4,16,"['bank', 'atm', 'finance', 'point_of_interest', 'establishment']",大安區信義路四段299號
1524,安泰銀行 信義分行,ChIJFQrv-surQjQRINndtl5jnzk,25.0333742,121.5548894,3.2,5,"['bank', 'finance', 'point_of_interest', 'establishment']",大安區信義路四段281號
1525,元大銀行 信義分行,ChIJyfxFa8yrQjQRrsCWUG4wTQ4,25.0344027,121.5526782,2.7,12,"['bank', 'finance', 'point_of_interest', 'establishment']",大安區安和路一段133號
1526,玉山銀行 仁愛分行,ChIJoTD168irQjQRusmxIhviC5Y,25.0372189,121.5557324,4.3,6,"['bank', 'finance', 'point_of_interest', 'establishment']",大安區仁愛路四段376號之1號
1527,國票證券,ChIJ1ahQxcurQjQRHltXPs2BEPg,25.0328784,121.5562426,-,-,"['bank', 'finance', 'point_of_interest', 'establishment']","號, No. 394, 信義路四段, 大安區"
1528,聯邦商業銀行-仁愛分行,ChIJwZsIlsirQjQRQT80qSjLmvE,25.0381882,121.5555089,2.7,14,"['bank', 'finance', 'point_of_interest', 'establishment']",大安區延吉街179號
1529,合作金庫銀行 仁愛分行,ChIJrbpbOM-rQjQRtDKsXqeAhbA,25.0381495,121.5532651,2.7,10,"['bank', 'finance', 'point_of_interest', 'establishment']",大安區仁愛路四段325號
1530,陽信銀行信義分行,ChIJpa9MScyrQjQR6mxltugzeLA,25.0330331,121.5516738,3.3,3,"['bank', 'finance', 'point_of_interest', 'establishment']",大安區信義路四段188號
1532,新光銀行忠孝分行,ChIJi4xoHcarQjQRtkCUglEIj5U,25.0394644,121.5549237,1.5,2,"['bank', 'finance', 'point_of_interest', 'establishment']",大安區延吉街160號
1533,中國信託信義分行,ChIJ69Qoa8yrQjQRg79H_zRptPM,25.0329797,121.5529621,2.8,30,"['bank', 'finance', 'point_of_interest', 'establishment']",大安區信義路四段236號
1534,德商德意志銀行,ChIJ2fa5L8-rQjQRpi9XGLvqFD0,25.0374177,121.5535457,4.6,5,"['bank', 'finance', 'point_of_interest', 'establishment']",大安區仁愛路四段296號10樓
1535,第一銀行 仁和分行,ChIJyZrn68irQjQRApNx_mGVf-k,25.0372932,121.5558686,3.7,7,"['bank', 'finance', 'point_of_interest', 'establishment']",大安區仁愛路四段376號
1537,第一銀行-安和分行,ChIJsR8gTcyrQjQRmoMpAHXX7eI,25.0330418,121.5513269,4.6,11,"['bank', 'finance', 'point_of_interest', 'establishment']",大安區信義路四段184號
1538,中國信託銀行 仁愛分行,ChIJQfauS8-rQjQR_nxI7VeSxjk,25.038301,121.553915,3,25,"['bank', 'finance', 'point_of_interest', 'establishment']",大安區仁愛路四段341號
1539,上海商業儲蓄銀行,ChIJ0zKn8MurQjQRxnura7JaMR0,25.0333804,121.5546364,3.6,5,"['bank', 'finance', 'point_of_interest', 'establishment']",大安區信義路四段275號
1540,永豐銀行 仁愛分行,ChIJdzHf88urQjQRGzx_tin11V4,25.0373369,121.5553609,3.8,13,"['bank', 'finance', 'point_of_interest', 'establishment']",大安區仁愛路四段316之2號
1541,Taiwan Business Bank Renai Branch,ChIJsTkFtMirQjQR6Ykc501phRU,25.0380889,121.5543551,2.2,12,"['bank', 'finance', 'point_of_interest', 'establishment']","No. 357號, Section 4, Ren'ai Road, Da’an District"
1542,安泰商業銀行股份有限公司,ChIJM6ss5curQjQRDENVl57G9PI,25.0333958,121.5547176,-,-,"['bank', 'finance', 'point_of_interest', 'establishment']","No. 281, Section 4, Xinyi Road, Da’an District"
1543,安泰商業銀行 信義分行,ChIJiypjpKyrQjQRyTiJZZDnhAg,25.0333215,121.5548563,-,-,"['bank', 'finance', 'point_of_interest', 'establishment']","No. 281號, Section 4, Xinyi Road, Da’an District"
1544,怡芳公司-國泰,ChIJB566L8-rQjQRF6N8dSgPqEY,25.0374136,121.5535465,-,-,"['bank', 'finance', 'point_of_interest', 'establishment']","號, No. 296, 仁愛路四段, 大安區"
1545,Cathay Financial Holdings Headquarters,ChIJ__96LdCrQjQRRvceiLJTcfU,25.0374136,121.5535465,4.5,2,"['bank', 'finance', 'point_of_interest', 'establishment']","Section 4, Ren'ai Road, Da’an District"
1546,Bank SinoPac,ChIJdzHf88urQjQRY3AaubATfuk,25.032954,121.55372,3.8,14,"['bank', 'finance', 'point_of_interest', 'establishment']","252號、256號2樓之1, Section 4, Xinyi Road, Da’an District"
1547,First Commercial Bank,ChIJZUQ8xcurQjQREaQVFinHIlc,25.0328799,121.555943,3,18,"['bank', 'finance', 'point_of_interest', 'establishment']","No. 382號, Section 4, Xinyi Road, Da’an District"
1548,元大銀行 延吉分行,ChIJ78Q2ucirQjQRKydrrOw_b-c,25.0380444,121.5551665,5,1,"['bank', 'finance', 'point_of_interest', 'establishment']","No. 387號, Section 4, Ren'ai Road, Da’an District"
1549,國泰人壽 仁愛服務中心,ChIJ-U_qSc-rQjQRqSz8tyFuwes,25.0381866,121.5541915,3.5,6,"['bank', 'finance', 'point_of_interest', 'establishment']","3樓, No. 357號, Section 4, Ren'ai Road, Da’an District"
1551,台北銀行仁愛分行,ChIJVVWGSc-rQjQRWYU5ADJDiWA,25.0382792,121.5537585,3,1,"['bank', 'finance', 'point_of_interest', 'establishment']",Da’an District
1554,Taiwan Cooperative Bank,ChIJPzItsM2rQjQRKs1Tefq8PNc,25.0330423,121.55093,3.2,13,"['bank', 'finance', 'point_of_interest', 'establishment']","No. 172號, Section 4, Xinyi Road, Da’an District"
1555,永豐金證卷信義分公司,ChIJp-mFtc2rQjQRP78AB7i_ql8,25.033453,121.5510542,5,1,"['bank', 'finance', 'point_of_interest', 'establishment']","No. 189號, Section 4, Xinyi Road, Da’an District"
1557,Entie Commercial Bank,ChIJeb8Zf8urQjQRT2vUE2tgs8I,25.0312389,121.554378,2.6,8,"['bank', 'finance', 'point_of_interest', 'establishment']","No. 29號, Tonghua Street, Da’an District"
1558,Union Bank of Taiwan,ChIJ4y8vfs2rQjQRe_pzaDQ7kCs,25.0333916,121.5503556,3.6,9,"['bank', 'finance', 'point_of_interest', 'establishment']","No. 165號, Section 4, Xinyi Road, Da’an District"
1583,Mega International Commercial Bank,ChIJ_e3zwsyrQjQRshf_4C4fA1E,25.0304699,121.5521389,4,16,"['bank', 'finance', 'point_of_interest', 'establishment']","No. 62, Section 2, Anhe Road, Da’an District"
1598,彰化銀行 信義分行,ChIJR7tivs2rQjQRUMe6mA2eoC8,25.0334742,121.5499238,2.5,6,"['bank', 'finance', 'point_of_interest', 'establishment']",大安區信義路四段155號
1844,日盛銀行大安分行,ChIJ1UrB64GpQjQRF8FqqtWN09s,25.0328099,121.5324729,3.3,3,"['bank', 'finance', 'point_of_interest', 'establishment']",大安區新生南路二段10號
1845,凱基銀行大安分行,ChIJhTrg6IGpQjQRVsYDTmOUzsg,25.0330465,121.5324517,4.1,7,"['bank', 'finance', 'point_of_interest', 'establishment']",大安區新生南路二段8號號
1846,國泰世華銀行 東門分行,ChIJa13CfH-pQjQRwcPfJWZ0rDM,25.033846,121.5335154,4.1,7,"['bank', 'finance', 'point_of_interest', 'establishment']",大安區信義路三段9號
1847,第一銀行信義分行,ChIJf-8uY3-pQjQRhZ8Kit9u92A,25.0338466,121.5334014,3.4,5,"['bank', 'finance', 'point_of_interest', 'establishment']",大安區信義路三段7號
1848,花旗銀行中正分行,ChIJ8a69Q3-pQjQRhEZgmzI1WvY,25.034692,121.532474,2.2,34,"['bank', 'finance', 'point_of_interest', 'establishment']",中正區新生南路一段158號
1850,安泰商業銀行,ChIJOw3vpDKqQjQRdZlCdH7ohh8,25.0351429,121.5329729,5,2,"['bank', 'finance', 'point_of_interest', 'establishment']",大安區新生南路一段155號
1851,First Bank,ChIJr32VYn-pQjQRsOfDlk3WeHA,25.033841,121.5334175,3.6,5,"['bank', 'finance', 'point_of_interest', 'establishment']",大安區信義路三段7號二樓
1852,台北富邦銀行 東門分行,ChIJr2nES3mpQjQR7mSvmBbQeZ8,25.033832,121.531794,3.7,18,"['bank', 'finance', 'point_of_interest', 'establishment']",中正區信義路二段265號
1853,合作金庫銀行 東門分行,ChIJ7YmsG4KpQjQRRZ08pZEGH90,25.0334379,121.5307569,2.8,16,"['bank', 'finance', 'point_of_interest', 'establishment']",大安區信義路二段208號
1854,安泰商業銀行股份有限公司新生分行,ChIJEyNAqnipQjQRsMynwBoS0Pk,25.035154,121.532976,4,1,"['bank', 'finance', 'point_of_interest', 'establishment']",大安區新生南路一段155號
1856,元大銀行 大安分行,ChIJbc13gi3RDRQRGu4vNlC2qCg,25.0353365,121.5322777,4,4,"['bank', 'atm', 'finance', 'point_of_interest', 'establishment']",中正區新生南路一段148-1號號
1861,國泰世華銀行 臨沂分行,ChIJ7zyJ5cWnQjQRqURljUZqS5M,25.0384367,121.5308472,2.8,9,"['bank', 'finance', 'point_of_interest', 'establishment']",中正區仁愛路二段71號
1864,臺灣銀行仁愛分行,ChIJ-22bvH6pQjQRnSSc85xSaik,25.0383949,121.532343,3.7,14,"['bank', 'finance', 'point_of_interest', 'establishment']",中正區仁愛路二段99號
1865,台灣土地銀行仁愛分行,ChIJm9tgeH6pQjQRC1tJpk9FUAg,25.0386457,121.5345638,3.9,10,"['bank', 'finance', 'point_of_interest', 'establishment']",大安區仁愛路三段29號
1870,土地銀行,ChIJmdtgeH6pQjQRqUCRvG_rQ-8,25.0385782,121.5346994,4,1,"['bank', 'finance', 'point_of_interest', 'establishment']",大安區仁愛路三段29號
1871,華南銀行 信義分行,ChIJ3RXpcYKpQjQRlroRmI8MVa8,25.033979,121.529434,2.4,14,"['bank', 'finance', 'point_of_interest', 'establishment']",中正區信義路二段183號
1872,台北富邦銀行 臨沂分行,ChIJr2nES3mpQjQRECaEa7a63Lg,25.0384719,121.5301429,4,13,"['bank', 'atm', 'finance', 'point_of_interest', 'establishment']",中正區仁愛路二段61號
1884,渣打銀行 金山分行,ChIJyfK2YoKpQjQR5Mm1fgj1XLE,25.0340296,121.5285948,2.5,24,"['bank', 'finance', 'point_of_interest', 'establishment']",中正區信義路二段151號
1887,大眾 仁愛,ChIJv3FeEnmpQjQRHqFiHMGQ28A,25.0384249,121.5292466,-,-,"['bank', 'finance', 'point_of_interest', 'establishment']","號, No. 47, 仁愛路二段, 中正區"
1890,滙豐銀行 東門分行,ChIJKe8yY4KpQjQR87WTN2Cp8cQ,25.034097,121.528667,3.6,9,"['bank', 'finance', 'point_of_interest', 'establishment']",中正區信義路二段155號
1892,永豐銀行-東門分行,ChIJr7SZZoKpQjQR2XurvmUEegA,25.0336488,121.5289325,4.3,16,"['bank', 'finance', 'point_of_interest', 'establishment']","1、2樓, No. 156號, 信義路二段, 大安區"
1894,E.Sun Bank Dongmen Branch,ChIJIUxGioKpQjQRNrHyPnlLE6Q,25.0337646,121.5283428,3.7,29,"['bank', 'finance', 'point_of_interest', 'establishment']",大安區信義路二段134號
1895,彰化商業銀行,ChIJicjscHmpQjQR2aKdWtk7RQ8,25.0393333,121.528933,3.4,11,"['bank', 'finance', 'point_of_interest', 'establishment']",中正區金山南路一段47號
1900,彰化銀行 東門分行,ChIJjR_KiIKpQjQRmpuqwKi7L00,25.0342137,121.5280976,3.2,9,"['bank', 'finance', 'point_of_interest', 'establishment']",中正區信義路二段139號
1907,台北區中小企業銀行,ChIJaZvgZoKpQjQRVgMqHIY0Kvc,25.0335685,121.528884,4,1,"['bank', 'finance', 'point_of_interest', 'establishment']",Da’an District
1908,是知管理顧問,ChIJg4wAiYKpQjQRevq0tMxpJIM,25.0341726,121.5282005,1,1,"['bank', 'finance', 'point_of_interest', 'establishment']","號, No. 139, 信義路二段, 中正區"
1909,Far Eastern International Bank,ChIJ1Z-9iIKpQjQRCN_QdDuiD3I,25.0341649,121.5280322,4,3,"['bank', 'finance', 'point_of_interest', 'establishment']","No. 135號, Section 2, Xinyi Road, Zhongzheng District"
1910,聯邦銀行 東門分行,ChIJhfg6kIKpQjQRjlXXJbKxnME,25.034223,121.527667,2.6,9,"['bank', 'finance', 'point_of_interest', 'establishment']","No. 101號, Section 2, Xinyi Road, Zhongzheng District"
1912,台新銀行ATM,ChIJ_1Mfk4KpQjQRdbAK-ZUn1sA,25.0338288,121.5275253,-,-,"['bank', 'finance', 'point_of_interest', 'establishment']","No. 104號, Section 2, Xinyi Road, Da’an District"
1921,元大銀行 東門分行,ChIJJfg95IKpQjQRNDIZdpqBOY8,25.0328085,121.5272488,1.7,6,"['bank', 'finance', 'point_of_interest', 'establishment']",大安區金山南路二段33號
1934,土地銀行,ChIJ_aN_hISpQjQRZ2gcHZYyUJ0,25.0293263,121.5277647,-,-,"['bank', 'finance', 'point_of_interest', 'establishment']","No. 9, Lane 107, Chaozhou Street, Da’an District"
1937,星展銀行 大安分行,ChIJkcPh04SpQjQRDjHtcYT7RdI,25.0278098,121.5259392,3.5,8,"['bank', 'finance', 'point_of_interest', 'establishment']",大安區金山南路二段200號
1938,臺灣銀行 金山分行,ChIJV3LpxYSpQjQRYCSBbH4V2Ds,25.028286,121.5263709,2.6,13,"['bank', 'finance', 'point_of_interest', 'establishment']",大安區金山南路二段189號
1940,臺灣土地銀行 東門分行,ChIJTavRu4SpQjQRZdL3JWqNqSA,25.0290065,121.5265069,3.6,7,"['bank', 'finance', 'point_of_interest', 'establishment']",大安區金山南路二段165號
1945,臺灣銀行 信義分行,ChIJ9U0Lv4KpQjQRTydRUbOIcEg,25.0339609,121.5268109,2.9,13,"['bank', 'finance', 'point_of_interest', 'establishment']",大安區信義路二段88號
1947,臺灣銀行-愛國簡易分行,ChIJS3mfxZypQjQRGz_UWoioAME,25.0321947,121.5247492,1,2,"['bank', 'finance', 'point_of_interest', 'establishment']",大安區愛國東路31號
1954,新光銀行中正分行,ChIJ-e-Awi7RDRQR3npsDGJMhrE,25.0350765,121.5257378,2.7,7,"['bank', 'finance', 'point_of_interest', 'establishment']",中正區信義路二段27號
1958,上海銀行 仁愛分行,ChIJ0bypWw2sQjQR-MBLLvkP_O4,25.0380363,121.5262409,2.6,17,"['bank', 'finance', 'point_of_interest', 'establishment']",中正區仁愛路二段16號
1966,滙豐銀行 仁愛分行,ChIJhZORgXepQjQRBR_BQgu9xt0,25.0380839,121.5253229,3.7,9,"['bank', 'finance', 'point_of_interest', 'establishment']",中正區仁愛路二段2號
1969,上海商業儲蓄銀行信託部,ChIJD3i80nmpQjQRO-3NwKandJg,25.0380532,121.5262369,-,-,"['bank', 'finance', 'point_of_interest', 'establishment']",中正區仁愛路二段16號2 樓
1973,臺灣銀行東門簡易型分行,ChIJZT_36nepQjQRg0oBEgQ8YDM,25.0372423,121.5236733,-,-,"['bank', 'finance', 'point_of_interest', 'establishment']","號, No. 117, 杭州南路一段, 中正區"
1975,臺灣銀行,ChIJv4KLo3epQjQRQulfMqtQRb4,25.0372992,121.5235944,3.8,6,"['bank', 'finance', 'point_of_interest', 'establishment']",中正區紹興南街21號
2009,中央銀行,ChIJyW8eHZ-pQjQRvODMHLX1_yQ,25.0340527,121.5167475,4.5,46,"['bank', 'finance', 'point_of_interest', 'establishment']",中正區羅斯福路一段2號
2010,遠東銀行 南門分行,ChIJT5o8TpmpQjQRV2kHFwtgX3A,25.031104,121.519184,3.8,5,"['bank', 'finance', 'point_of_interest', 'establishment']",中正區羅斯福路一段40號
2011,台北富邦銀 南門分行,ChIJf9lA5Z6pQjQRygJcQLTNats,25.0325718,121.5188114,4.1,14,"['bank', 'finance', 'point_of_interest', 'establishment']",中正區金華街17號
2012,合庫創投,ChIJb3FEcj6pQjQRWQ0eFtYu0YA,25.0337929,121.5179947,-,-,"['bank', 'finance', 'point_of_interest', 'establishment']",中正區羅斯福路一段7號4樓
2015,土地銀行-勞保局收支櫃檯,ChIJHcOC4J6pQjQRYdo32zY6N2U,25.0334835,121.5172348,3,2,"['bank', 'finance', 'point_of_interest', 'establishment']",中正區羅斯福路一段4號
2016,聰明貸款,ChIJ3YFcgtSrQjQRca5P4wogOhQ,25.0329058,121.5173637,5,8,"['bank', 'finance', 'point_of_interest', 'establishment']",中正區南海路13F，No. 1號
2017,合作金庫銀行 南門分行,ChIJwWjaV5mpQjQRa9xVuH0S9z4,25.0308134,121.5200614,2.5,14,"['bank', 'finance', 'point_of_interest', 'establishment']",中正區羅斯福路一段97號
2018,元大銀行 南門分行,ChIJ2fJiVpmpQjQRmTjzqQygxR0,25.0307586,121.5200437,3.1,7,"['bank', 'finance', 'point_of_interest', 'establishment']",中正區羅斯福路一段99號
2019,日盛銀行 南門分行,ChIJoVVDKZ-pQjQRx07meTvyTUU,25.032643,121.516727,4.7,6,"['bank', 'finance', 'point_of_interest', 'establishment']",中正區南海路3之1號
2020,新光銀行,ChIJt7FyWpqpQjQRT4XAew2esBs,25.027636,121.522293,2.2,21,"['bank', 'finance', 'point_of_interest', 'establishment']",大安區羅斯福路二段41號
2021,台新銀行(南門分行),ChIJr9KIJpmpQjQRupW6KZngUPc,25.031275,121.517357,3.5,35,"['bank', 'finance', 'point_of_interest', 'establishment']",中正區南昌路一段55號
2022,華南銀行台北南門分行,ChIJ8auKtJupQjQR9EAvrXe279I,25.028643,121.521568,3,19,"['bank', 'finance', 'point_of_interest', 'establishment']",中正區羅斯福路二段11號
2023,台灣銀行南門分行,ChIJFzMrIgupQjQRZ0I12NbxqOs,25.0298292,121.5181324,2.9,23,"['bank', 'finance', 'point_of_interest', 'establishment']",中正區南昌路一段120號
2024,國泰世華銀行 南門分行,ChIJ394hxpupQjQRgVXBDW-mU24,25.0292174,121.5211335,3.8,19,"['bank', 'finance', 'point_of_interest', 'establishment']",中正區羅斯福路二段5號
2026,兆豐銀行 南台北分行,ChIJLXEktJupQjQRnQQu1f2WC5s,25.0287879,121.521543,3.8,39,"['bank', 'finance', 'point_of_interest', 'establishment']",中正區羅斯福路二段9之1號
2027,永豐銀行-南門分行,ChIJZTRNEJmpQjQRpDyTDeaJQuI,25.0301406,121.5178948,3.4,8,"['bank', 'finance', 'point_of_interest', 'establishment']",中正區南昌路一段110號
2028,彰化商業銀行,ChIJYfESTpqpQjQRDa_VvFM5Boo,25.0279499,121.522051,2.4,21,"['bank', 'finance', 'point_of_interest', 'establishment']",大安區羅斯福路二段25號
2031,第一銀行,ChIJC6LPaXupQjQRtQsYNg4d9AU,25.0305602,121.5175843,2.7,19,"['bank', 'finance', 'point_of_interest', 'establishment']",中正區南昌路一段94號
2033,世華銀行,ChIJywKByJupQjQRWtVIiXxnxBo,25.0292158,121.5210706,-,-,"['bank', 'finance', 'point_of_interest', 'establishment']","國泰 世 華 銀行, 中正區"
2034,兆豐銀行（南台北分行）ATM（可領外幣）,ChIJdSxTtJupQjQRF8FKPRpRcFo,25.0286948,121.5214786,5,1,"['bank', 'finance', 'point_of_interest', 'establishment']",中正區羅斯福路二段9之1號 100號
2035,安泰商業銀行,ChIJadaoEJmpQjQRHYj7hpInMdc,25.0296559,121.5182061,2.7,3,"['bank', 'finance', 'point_of_interest', 'establishment']",中正區南昌路一段124號
2036,北區中小企業銀行,ChIJVVXOD5mpQjQRz03mpM40QSk,25.0299578,121.5178754,-,-,"['bank', 'finance', 'point_of_interest', 'establishment']",中正區
2040,中國信託商業銀行嘉義分公司永利證券收付處,ChIJG15DYZqpQjQRmUh_mznv4jI,25.0266623,121.5224378,-,-,"['bank', 'finance', 'point_of_interest', 'establishment']","No. 102, Section 2, Roosevelt Road, Zhongzheng District"
2055,瑞興銀行 古亭分行,ChIJcROW37ypQjQRhpCrt3UFYDM,25.0287255,121.5123565,3.5,11,"['bank', 'finance', 'point_of_interest', 'establishment']",中正區和平西路二段54號
2066,兆豐銀行 外交部分行,ChIJi1GlcnWpQjQRwpm1uzcCoW0,25.038947,121.516346,4,3,"['bank', 'finance', 'point_of_interest', 'establishment']",中正區凱達格蘭大道2號129室
2078,台北富邦銀行 城中分行,ChIJZcDlZnOpQjQRzR1SeZkgN2k,25.0435153,121.5158386,3.1,35,"['bank', 'finance', 'point_of_interest', 'establishment']",中正區襄陽路9號
2079,台灣土地銀行,ChIJ4w1_RXOpQjQRpNfJernYK9o,25.0441839,121.514254,4.4,9,"['bank', 'finance', 'point_of_interest', 'establishment']",中正區懷寧街53號
2080,中國信託站前分行,ChIJeQAlGA2pQjQROjXaowKhKAs,25.0457048,121.5185878,3,28,"['bank', 'finance', 'point_of_interest', 'establishment']",中正區忠孝西路一段4號
2081,台灣銀行ATM 立法院委員研究會館,ChIJjQG-P3GpQjQR8sRkXhoQbL4,25.0430077,121.5213887,-,-,"['bank', 'finance', 'point_of_interest', 'establishment']","號, No. 3-1, 濟南路一段, 中正區"
2082,㙶灣土地銀行營業部,ChIJbzC3T3OpQjQRn5fk2NWfWho,25.0441134,121.5147336,2.9,7,"['bank', 'finance', 'point_of_interest', 'establishment']",中正區館前路46號
2083,台灣銀行館前分行,ChIJqXWleAypQjQRkgf0wUsRrmw,25.0448979,121.5151541,3.1,68,"['bank', 'finance', 'point_of_interest', 'establishment']",中正區館前路49號
2084,兆豐銀行 城中分行,ChIJoaDII3OpQjQRufEj6U6YgXg,25.0454269,121.515476,3.7,28,"['bank', 'finance', 'point_of_interest', 'establishment']",中正區許昌街42號
2085,全國農業金庫,ChIJi2SRRHOpQjQRdjTWXgD4PIE,25.0439687,121.5151756,3.4,10,"['bank', 'finance', 'point_of_interest', 'establishment']",中正區館前路71號
2086,上海商業儲蓄銀行 城中分行,ChIJC7cc1XKpQjQRJohz36NeUR8,25.0447969,121.5148759,3.8,8,"['bank', 'finance', 'point_of_interest', 'establishment']",中正區館前路28號
2087,國泰世華銀行 館前分行,ChIJy6LiRnOpQjQRABmdf-l9iWk,25.0444423,121.5151277,2.9,29,"['bank', 'finance', 'point_of_interest', 'establishment']",中正區館前路65號3樓
2088,華銀城內,ChIJqdW00DOpQjQR4bdo6BWkAOU,25.0439998,121.5195803,-,-,"['bank', 'finance', 'point_of_interest', 'establishment']",中正區博愛路93號
2089,臺銀群閒,ChIJ7baEdn-pQjQRMBBTNZPkKPU,25.0439998,121.5195803,-,-,"['bank', 'finance', 'point_of_interest', 'establishment']",中正區中山南路1號
2090,國泰人壽大樓,ChIJ__-PenOpQjQRMuO_4N0FOhk,25.0435702,121.5164367,4,1,"['bank', 'finance', 'point_of_interest', 'establishment']",中正區襄陽路1號
2091,合作金庫商業銀行放款覆審中心,ChIJnQpsE3OpQjQRaSMAcDL772c,25.044477,121.516018,-,-,"['bank', 'finance', 'point_of_interest', 'establishment']",中正區南陽街
2092,富邦人壽(富達通訊處),ChIJn7ngZnOpQjQRZQHzPe9XPV8,25.0435201,121.5157864,-,-,"['bank', 'finance', 'point_of_interest', 'establishment']",中正區襄陽路9號樓 A區
2093,國泰世華商業銀行ATM,ChIJNUDgVXKpQjQRAkptVMnur2U,25.045771,121.5171,-,-,"['bank', 'atm', 'finance', 'point_of_interest', 'establishment']",中正區許昌街17號3樓
2094,台新國際商業銀行股份有限公司,ChIJnbk4QXKpQjQRunJsQB0JDQQ,25.0462713,121.5181891,-,-,"['bank', 'finance', 'point_of_interest', 'establishment']",中正區忠孝西路一段43號1樓
2095,台灣土地銀行 國外部,ChIJ4w1_RXOpQjQRuXgc7L0HmoY,25.0441134,121.5147336,3.9,9,"['bank', 'finance', 'point_of_interest', 'establishment']",中正區館前路46號
2096,遠東國際商業銀行股份有限公司,ChIJlfLm4nKpQjQRdeL5ppxudIU,25.0456846,121.5162582,-,-,"['bank', 'finance', 'point_of_interest', 'establishment']",中正區南陽街1號5樓
2097,合作金庫銀行 臺大分行,ChIJ8ZnzOHSpQjQRYCMf89BrBuc,25.0402741,121.5191591,3.7,3,"['bank', 'finance', 'point_of_interest', 'establishment']",中正區中山南路7號B1樓
2098,合作金庫銀行 館前分行,ChIJ43CSW3OpQjQRd0aziNuP1KI,25.0436707,121.5151857,2,13,"['bank', 'finance', 'point_of_interest', 'establishment']","No. 77號, Guanqian Road, Zhongzheng District"
2099,合作金庫審查部,ChIJr7VW9TipQjQRzSY0pbk0CBA,25.0443072,121.5151731,-,-,"['bank', 'finance', 'point_of_interest', 'establishment']","Hengyang Road, Zhongzheng District"
2100,國泰世華銀行 館前分行,ChIJQZw68Xs9aTQR-qGnlbg6oOE,25.0442759,121.5151397,1,1,"['bank', 'finance', 'point_of_interest', 'establishment']","No. 65號, Guanqian Road, Zhongzheng District"
2101,新光銀行 數位（館前簡易）分行,ChIJwXDB9zepQjQR4Ems6bU3c9E,25.0459835,121.5157153,3.3,10,"['bank', 'finance', 'point_of_interest', 'establishment']","No. 50號, Section 1, Zhongxiao West Road, Zhongzheng District"
2102,互立金交易平台股份有限公司,ChIJCVD113KpQjQRDaPOOg_5qbU,25.0460533,121.5148682,-,-,"['bank', 'finance', 'point_of_interest', 'establishment']","樓之3, No. 6號7, Guanqian Road, Zhongzheng District"
2103,中國信託商業銀行代理部,ChIJxUnWv8WpQjQRQcup3u0lIyw,25.0438091,121.5139647,4.5,2,"['bank', 'finance', 'point_of_interest', 'establishment']","No. 70號, Huaining Street, Zhongzheng District"
2106,臺灣銀行總行,ChIJFzMrIgupQjQRoL1uLkbjoIA,25.04147,121.512912,4.1,131,"['bank', 'finance', 'point_of_interest', 'establishment']",中正區重慶南路一段120號
2107,第一商業銀行西門分行,ChIJSfFvIgmpQjQRIsFSAgVxeKs,25.0421163,121.5120027,3,22,"['bank', 'finance', 'point_of_interest', 'establishment']",萬華區西寧南路52號
2108,花旗銀行 襄陽分行,ChIJA-VUVwupQjQRHx7ZUWFDhA0,25.0433239,121.513461,2.6,51,"['bank', 'finance', 'point_of_interest', 'establishment']",中正區襄陽路8號
2109,全國農業金庫銀行語音總機,ChIJUSW2fgqpQjQReMYgGSHXanI,25.039177,121.51098,3,1,"['bank', 'finance', 'point_of_interest', 'establishment']",中正區博愛路168號
2110,彰化銀行（城內分行）,ChIJsx4XDwupQjQRWfyGaizVXaw,25.0420003,121.5116529,2.5,15,"['bank', 'finance', 'point_of_interest', 'establishment']",中正區衡陽路68號
2111,臺灣銀行股份有限公司自動語音系統,ChIJUSW2fgqpQjQRlI7f3lTqmVU,25.039177,121.51098,-,-,"['bank', 'finance', 'point_of_interest', 'establishment']",臺灣省台北市 中正區博愛路168號C棟4樓
2112,台灣銀行金融卡掛失語音專線,ChIJFzMrIgupQjQRDdAFY3PfMXU,25.0414699,121.512912,-,-,"['bank', 'finance', 'point_of_interest', 'establishment']",中正區重慶南路一段120號
2114,新光銀行(城內分行),ChIJD3VARgupQjQRnjgG4ox3PvM,25.042589,121.513358,3,3,"['bank', 'finance', 'point_of_interest', 'establishment']",中正區重慶南路一段115號
2115,元大銀行 城中分行,ChIJOaJPEQupQjQRYtuYeLi9mkM,25.042172,121.512362,2.5,4,"['bank', 'finance', 'point_of_interest', 'establishment']",中正區衡陽路42號44號1樓
2116,台灣銀行國外部事務科,ChIJnUEKAAupQjQRtQckIAkSWe4,25.041559,121.511307,-,-,"['bank', 'finance', 'point_of_interest', 'establishment']",中正區博愛路162號
2117,合作金庫銀行 城內分行,ChIJPUGYWQqpQjQRegFc3RiZ9V8,25.0423452,121.5105825,4,31,"['bank', 'finance', 'point_of_interest', 'establishment']",中正區衡陽路87號
2118,兆豐銀行 衡陽分行,ChIJLXEktJupQjQRWdRDA5SZEBw,25.0422999,121.5103,3,32,"['bank', 'finance', 'point_of_interest', 'establishment']",中正區衡陽路91號
2119,華南銀行 城內分行,ChIJOzXMdgupQjQRaYl3YuFe6NM,25.0431939,121.511646,3.5,6,"['bank', 'finance', 'point_of_interest', 'establishment']",中正區博愛路93號
2120,兆豐銀行,ChIJjUawuwupQjQR01jgzNDmJvo,25.0425041,121.5103541,3.8,5,"['bank', 'finance', 'point_of_interest', 'establishment']",中正區延平南路98號
2121,新生大樓,ChIJj4QSWAupQjQRehIH2-GpmxQ,25.0436273,121.5133674,-,-,"['bank', 'finance', 'point_of_interest', 'establishment']",中正區重慶南路一段89號
2125,元大銀行 中正分行,ChIJAUXp6gypQjQRlKu2IfrDrUI,25.0452964,121.5126058,2.5,12,"['bank', 'finance', 'point_of_interest', 'establishment']",中正區漢口街一段45號
2127,永豐銀行 城中分行,ChIJM-C89wypQjQR-Oc9mY-E57Y,25.0456865,121.5115366,4.4,16,"['bank', 'finance', 'point_of_interest', 'establishment']",中正區博愛路17號
2128,華南銀行 營業部,ChIJuW8yvwypQjQRSqkpZRQQobI,25.0448403,121.5130993,3.4,37,"['bank', 'finance', 'point_of_interest', 'establishment']",中正區重慶南路一段38號
2129,第一銀行總行,ChIJS43ewwypQjQRCTqIz_FIP_g,25.0457505,121.5130869,3.3,66,"['bank', 'finance', 'point_of_interest', 'establishment']",中正區重慶南路一段30號
2131,彰化商業銀行,ChIJS29vxQypQjQRbuXuDMEqtpM,25.0456024,121.5133705,2.4,17,"['bank', 'finance', 'point_of_interest', 'establishment']",中正區重慶南路一段27號
2132,日盛國際商業銀行,ChIJF0LMJg2pQjQRRHfKFJcxj80,25.046607,121.5131059,4,5,"['bank', 'finance', 'point_of_interest', 'establishment']",中正區重慶南路一段10號
2133,台新銀行 西門分行,ChIJf-8jugypQjQRl9BlwLo8YYo,25.0446169,121.513388,2.4,41,"['bank', 'finance', 'point_of_interest', 'establishment']",中正區重慶南路一段57號
2134,中國信託城中分行,ChIJP8qSpwypQjQRBofGyglmRtE,25.0437196,121.5133574,2.8,45,"['bank', 'finance', 'point_of_interest', 'establishment']",中正區重慶南路一段83號1樓
2135,瑞興銀行(信託部),ChIJYYBTXwupQjQRCw_xe_TsJ84,25.043717,121.513079,5,2,"['bank', 'finance', 'point_of_interest', 'establishment']",中正區重慶南路一段64號2樓
2137,華南永昌證券-中正分公司,ChIJ7dpKuQypQjQRazzUxOs0Rz8,25.0448403,121.5130993,4.8,4,"['bank', 'finance', 'point_of_interest', 'establishment']",中正區重慶南路一段38號4樓
2138,國泰世華銀行 台北分行,ChIJ7QUVCgupQjQRlQRjJYtCQBo,25.0436045,121.5117079,3,25,"['bank', 'finance', 'point_of_interest', 'establishment']","號3樓, 揚昇君臨, 博愛路, 中正區"
2140,台灣土地銀行中華臺北分行,ChIJ4w1_RXOpQjQR0WeYR3DfJaw,25.044783,121.5113159,1.6,11,"['bank', 'finance', 'point_of_interest', 'establishment']",中正區博愛路72號
2143,Yuanta Commercial Bank,ChIJ_4AmLQqpQjQRbyymXEscZxc,25.0419947,121.5090188,2.3,16,"['bank', 'finance', 'point_of_interest', 'establishment']","5樓, 寶慶路69號及69號, Zhongzheng District"
2144,Bank of Taipei,ChIJYYBTXwupQjQRP2Wm9UYOCVY,25.043717,121.5130789,4.8,37,"['bank', 'finance', 'point_of_interest', 'establishment']","No. 64號, Section 1, Chongqing South Road, Zhongzheng District"
2145,Bank of Kaohsiung,ChIJXVYwXwypQjQR1k4vxwp45m8,25.0458337,121.5111264,4.3,16,"['bank', 'finance', 'point_of_interest', 'establishment']","No. 38號, Bo'ai Road, Zhongzheng District"
2153,E.Sun Bank Chengzhong Branch,ChIJu3NchgupQjQRd2zl7HQa0pM,25.0442678,121.5095642,3,65,"['bank', 'finance', 'point_of_interest', 'establishment']","No. 77號, Section 1, Wuchang Street, Zhongzheng District"
2156,香港商亞洲商業銀行臺北代表人辦事處,ChIJP8qSpwypQjQRnbyGZOytqi0,25.0437196,121.5133574,-,-,"['bank', 'finance', 'point_of_interest', 'establishment']","6樓, No. 83號, Section 1, Chongqing South Road, Zhongzheng District"
2158,臺灣新光商業銀行股份有限公司城內新光收付處,ChIJu981XwupQjQRz0EIfMXCbEM,25.0436519,121.513069,-,-,"['bank', 'finance', 'point_of_interest', 'establishment']","No. 66, Section 1, Chongqing South Road, Zhongzheng District"
2159,華南金控企業工會,ChIJ7dpKuQypQjQRQcl2rZLuWFU,25.0448403,121.5130993,-,-,"['bank', 'finance', 'point_of_interest', 'establishment']","10006 號 2 樓, No. 38, 重慶南路一段, 中正區"
2160,三十四銀行台北支店舊址,ChIJ70Jr9GypQjQRkp4Pc0z2hU8,25.0449009,121.5130312,-,-,"['bank', 'finance', 'point_of_interest', 'establishment']","No. 36號, Section 1, Chongqing South Road, Zhongzheng District"
2164,第一商業銀行股份有限公司信託部債票券業務,ChIJS43ewwypQjQRkVAAougj39E,25.045433,121.512988,-,-,"['bank', 'finance', 'point_of_interest', 'establishment']","No. 30, Section 1, Chongqing South Road, Zhongzheng District"
2166,Taiwan Bank International Financial Business Branch,ChIJtZpBfwypQjQRV3qMD0o6mwk,25.0442223,121.5111966,4.5,2,"['bank', 'finance', 'point_of_interest', 'establishment']","號 前 棟 3 樓, No. 49, Section 1, Wuchang Street, Zhongzheng District"
